STOP_ID,STOP_NAME,MODE,LONGITUDE,LATITUDE
1100,Broadway/Glen Huntly Rd,SKYBUS,144.982220,-37.882118
1109,Inkerman St/Barkly St,SKYBUS,144.981937,-37.863730
1414,Bay St/New St,SKYBUS,144.993277,-37.904098
14948,Moorabbin Station/Nepean Hwy,SKYBUS,145.036197,-37.934615
18766,Sunshine Station/Dickson St,SKYBUS,144.833217,-37.787425
19488,Doncaster Shopping Centre/Williamsons Rd,SKYBUS,145.124989,-37.784023
19648,Box Hill Bus Station/Station St,SKYBUS,145.122141,-37.819828
20394,Head St/New St,SKYBUS,144.995625,-37.891783
20400,North Brighton Station/Bay St,SKYBUS,145.003168,-37.905537
20668,Watsonia Station/Greensborough Hwy,SKYBUS,145.084147,-37.710901
20986,Southland Shopping Centre/Karen St ,SKYBUS,145.053187,-37.957796
21220,Frankston Railway Station/Fletcher Rd,SKYBUS,145.126236,-38.144118
23173,Skybus Coach Terminal/Spencer St,SKYBUS,144.951900,-37.816278
23175,Skybus Coach Terminal/Spencer St,SKYBUS,144.952543,-37.816460
23183,Skybus Coach Terminal/Spencer St,SKYBUS,144.951725,-37.816040
3245,Bay St/New St,SKYBUS,144.993157,-37.903915
3633,North Brighton Station/Bay St,SKYBUS,145.002076,-37.905509
3749,Head St/New St,SKYBUS,144.995467,-37.891735
3752,Elsternwick Station/20 Horne St,SKYBUS,145.000297,-37.885112
40272,Avalon Airport/Outside Terminal,SKYBUS,144.473432,-38.026352
40284,Avalon Airport/Outside Terminal,SKYBUS,144.473432,-38.026352
42273,Chelsea Railway Station/Station St,SKYBUS,145.116213,-38.051940
45511,Melbourne Airport T1 Skybus/Arrival Dr,SKYBUS,144.850681,-37.669331
45513,Melbourne Airport T3 Skybus/Arrival Dr,SKYBUS,144.848741,-37.670936
48578,Melbourne Airport T4 Skybus/Service Rd,SKYBUS,144.849143,-37.672322
48784,Quest/435-437 Nepean Hwy,SKYBUS,145.121580,-38.142349
48787,938 Nepean Hwy,SKYBUS,145.037016,-37.936755
5184,Werribee RSL/Synnot St,SKYBUS,144.664303,-37.901144
7183,Werribee RSL/Synnot St,SKYBUS,144.664524,-37.901347
894,Elsternwick Station/Horne St,SKYBUS,145.000291,-37.884896
901,Ormond Rd/Glen Huntly Rd,SKYBUS,144.983045,-37.882322
910,Fawkner St/Barkly St,SKYBUS,144.981597,-37.864553
9349,Rogers St/Balcombe Rd,SKYBUS,145.069041,-37.981722
9629,Rogers St/Balcombe Rd,SKYBUS,145.069129,-37.981840
20043,Southern Cross Station,INTERSTATE TRAIN,144.952166,-37.818157
20288,Ararat Station,INTERSTATE TRAIN,142.936914,-37.282205
20335,North Shore Station,INTERSTATE TRAIN,144.365321,-38.098377
20600,Adelaide Station,INTERSTATE TRAIN,138.581311,-34.938167
20609,Murray Bridge Station,INTERSTATE TRAIN,139.275554,-35.116644
20614,Bordertown Station,INTERSTATE TRAIN,140.777622,-36.310557
20616,Nhill Station,INTERSTATE TRAIN,141.653890,-36.332222
20617,Dimboola Station,INTERSTATE TRAIN,142.032464,-36.454180
20618,Horsham Station,INTERSTATE TRAIN,142.200555,-36.707501
45918,Stawell Station,INTERSTATE TRAIN,142.773538,-37.059240
sa:rail:ADE,Adelaide Railway Station,INTERSTATE TRAIN,138.581288,-34.938174
sa:rail:BOR,Bordertown Railway Station,INTERSTATE TRAIN,140.773885,-36.308607
sa:rail:MUR,Murray Bridge Railway Station,INTERSTATE TRAIN,139.275285,-35.116941
vic:rail:ART,Ararat Railway Station,INTERSTATE TRAIN,142.936912,-37.282241
vic:rail:DIM,Dimboola Railway Station,INTERSTATE TRAIN,142.032464,-36.454180
vic:rail:HRM,Horsham Railway Station,INTERSTATE TRAIN,142.200555,-36.707501
vic:rail:NHL,Nhill Railway Station,INTERSTATE TRAIN,141.653890,-36.332222
vic:rail:NSH,North Shore Railway Station,INTERSTATE TRAIN,144.365321,-38.098377
vic:rail:SSS,Southern Cross Railway Station,INTERSTATE TRAIN,144.952777,-37.818663
vic:rail:STL-V,Stawell Railway Station,INTERSTATE TRAIN,142.773889,-37.060000
13626,Lakeside Bvd/Princes Hwy,REGIONAL BUS,145.456709,-38.062348
13763,High St/Main Rd,REGIONAL BUS,144.736607,-37.278118
13764,High St/Main Rd,REGIONAL BUS,144.736812,-37.278050
13765,Romsey Community Hub/Main St,REGIONAL BUS,144.742812,-37.350090
13766,Romsey Community Hub/Main St,REGIONAL BUS,144.743036,-37.350121
15096,Jennings St/Northern Hwy,REGIONAL BUS,144.711852,-36.927406
15097,Jennings St/Northern Hwy,REGIONAL BUS,144.712299,-36.927469
15109,Murray River Council/Cobb Hwy,REGIONAL BUS,144.756112,-36.114285
15113,Thompson St/Main St,REGIONAL BUS,144.131196,-35.643573
15114,King Albert Ave/Leitchville Rd,REGIONAL BUS,144.301115,-35.903637
15115,Newsagent/Murray Valley Hwy,REGIONAL BUS,144.368797,-35.956289
15116,Newsagent/Murray Valley Hwy,REGIONAL BUS,144.368796,-35.955983
15117,General Store/Murray Valley Hwy,REGIONAL BUS,144.516566,-36.028933
15122,Transit Centre/Union St,REGIONAL BUS,145.047526,-36.314382
15123,Mill St/McLennan St,REGIONAL BUS,145.361332,-36.394078
15126,Shepparton Station/Purcell St ,REGIONAL BUS,145.406341,-36.383816
15127,Fraser St/Wyndham St,REGIONAL BUS,145.399466,-36.379839
15128,Fraser St/Wyndham St,REGIONAL BUS,145.399763,-36.379500
15130,Barmah Hotel/Maloney St,REGIONAL BUS,144.957807,-36.017252
15137,Milk Bar/Station St,REGIONAL BUS,144.980858,-36.397075
15139,Birdwood Ave/Brundenell St,REGIONAL BUS,144.982588,-36.445715
15140,Birdwood Ave/Brundenell St,REGIONAL BUS,144.982437,-36.445955
15143,High St/Moora Rd,REGIONAL BUS,145.014727,-36.585667
1613,Webster St/Dunlop St,REGIONAL BUS,142.804774,-38.080692
16238,Bendigo Station/Railway Pl,REGIONAL BUS,144.282104,-36.765928
16245,Marong/Calder Hwy ,REGIONAL BUS,144.132058,-36.735504
16246,Marong/Calder Hwy ,REGIONAL BUS,144.132442,-36.735432
16247,Bridgewater/Calder Hwy ,REGIONAL BUS,143.941345,-36.601675
16248,Bridgewater/Calder Hwy ,REGIONAL BUS,143.941264,-36.601447
16249,Inglewood/Grant St ,REGIONAL BUS,143.869302,-36.575454
16250,Inglewood/Grant St ,REGIONAL BUS,143.869753,-36.575628
16251,Jacka Park/Chapel St,REGIONAL BUS,143.613605,-36.418152
16253,Travellers Rest/John Curtin Dr,REGIONAL BUS,143.350877,-36.268352
16258,Post Office/Calder Hwy,REGIONAL BUS,143.225765,-36.076936
16264,Newsagency/Best St,REGIONAL BUS,142.849806,-35.504270
16265,McCelland St/Dillon St,REGIONAL BUS,143.267440,-35.469785
16266,McGregor's Garage/Donald - Swan Hill Rd,REGIONAL BUS,143.375329,-35.670773
16297,Traralgon Plaza SC/Franklin St,REGIONAL BUS,146.538424,-38.194426
16301,Gippsland Shopping Centre/Cunninghame St,REGIONAL BUS,147.063511,-38.107226
16302,Sale Station/Pettit Dr ,REGIONAL BUS,147.054691,-38.103229
16304,Memorial Park/Princes Hwy,REGIONAL BUS,147.080033,-37.965093
16554,Lookout Rd/Princes Hwy,REGIONAL BUS,147.961894,-37.879244
16556,Post Office/Princes Hwy,REGIONAL BUS,147.982369,-37.881544
16936,Boort/Godfrey St ,REGIONAL BUS,143.727112,-36.116611
16937,Mysia/Boort-Wedderburn Rd ,REGIONAL BUS,143.755346,-36.229948
16938,Boort/Godfrey St ,REGIONAL BUS,143.727120,-36.116683
16955,Kerang Station/Boundary St ,REGIONAL BUS,143.924336,-35.733137
16957,Murray Valley Hwy,REGIONAL BUS,143.636530,-35.463816
16958,Murray Valley Hwy,REGIONAL BUS,143.636410,-35.464046
16961,McAlpine Rd/Murray Valley Hwy,REGIONAL BUS,143.377303,-35.176046
16962,McAlpine Rd/Murray Valley Hwy,REGIONAL BUS,143.377480,-35.175511
16969,Robinvale Railway Station/Bromley Rd,REGIONAL BUS,142.770342,-34.584790
17124,General Store/Murray St,REGIONAL BUS,143.310582,-35.054221
17125,General Store/Murray St,REGIONAL BUS,143.310697,-35.053846
17134,Raglan St/Albert St,REGIONAL BUS,143.894319,-37.424507
17135,Raglan St/Albert St,REGIONAL BUS,143.894453,-37.424547
17136,Talbot Town Hall/Ballarat St,REGIONAL BUS,143.702095,-37.170269
17137,Talbot Town Hall/Ballarat St,REGIONAL BUS,143.702377,-37.170277
17138,Carisbrook General Store/Green St,REGIONAL BUS,143.813088,-37.049055
17139,Carisbrook General Store/Green St,REGIONAL BUS,143.813092,-37.048974
17144,Market St/Harmony Way ,REGIONAL BUS,144.260982,-36.996828
17145,Market St/Harmony Way ,REGIONAL BUS,144.260630,-36.996928
17148,CFA/Bridport St,REGIONAL BUS,144.141038,-37.342710
17149,Hotel/Midland Hwy,REGIONAL BUS,144.042237,-37.367221
17150,Hotel/Midland Hwy,REGIONAL BUS,144.041885,-37.367275
17151,Antique Shop/Midland Hwy,REGIONAL BUS,143.994503,-37.401771
17152,Antique Shop/Midland Hwy,REGIONAL BUS,143.994394,-37.401678
17231,Euroa Station/Railway St,REGIONAL BUS,145.568420,-36.749396
17247,Blanche St/Foord St,REGIONAL BUS,146.394062,-36.010276
17248,Blanche St/Foord St,REGIONAL BUS,146.393873,-36.010284
17253,Wangaratta Station/Norton St ,REGIONAL BUS,146.317173,-36.355066
17347,King St/Commercial St,REGIONAL BUS,145.822823,-38.430881
17351,Leongatha Railway Station/Long St,REGIONAL BUS,145.947889,-38.477139
17365,Memorial Park/Grant St,REGIONAL BUS,146.674758,-38.564846
17368,Pier Rd/Bass Hwy,REGIONAL BUS,145.530388,-38.406959
17369,Grantville-Glen Alvie Rd/Bass Hwy,REGIONAL BUS,145.530054,-38.408153
17372,Corinella Public Hall/Smythe St,REGIONAL BUS,145.433326,-38.414470
17379,Forrest Ave/Phillip Island Rd,REGIONAL BUS,145.357792,-38.514903
17381,Walton St/Thompson Ave,REGIONAL BUS,145.239068,-38.459048
17382,Walton St/Thompson Ave,REGIONAL BUS,145.238822,-38.458764
17384,Peppermint Rd/Bass Hwy,REGIONAL BUS,145.475922,-38.549455
17385,Peppermint Rd/Bass Hwy,REGIONAL BUS,145.475770,-38.549570
17386,Ozone Hotel/Bass Hwy,REGIONAL BUS,145.546567,-38.563465
17387,Ozone Hotel/Bass Hwy,REGIONAL BUS,145.546708,-38.563323
17419,Albury Station/Hume Hwy ,REGIONAL BUS,146.924327,-36.084243
17581,Hogan St/Fraser St,REGIONAL BUS,145.225309,-36.440476
17681,Moorabool St/Malop St ,REGIONAL BUS,144.360369,-38.147229
17717,Skenes Creek Valley Rd/Great Ocean Rd,REGIONAL BUS,143.710125,-38.724998
17718,Pisces Holiday Park/Great Ocean Rd,REGIONAL BUS,143.675390,-38.741716
17719,Pisces Holiday Park/Great Ocean Rd,REGIONAL BUS,143.675334,-38.741678
17720,Visitor Information Centre/Great Ocean Rd,REGIONAL BUS,143.669065,-38.754544
17726,Surf Club/Tregea St,REGIONAL BUS,142.993777,-38.619204
17729,Peterborough General Store/Macs St ,REGIONAL BUS,142.877568,-38.607000
17730,Peterborough General Store/Macs St ,REGIONAL BUS,142.876878,-38.607021
17737,Spring St/Commercial Rd,REGIONAL BUS,142.362509,-38.291658
17738,Spring St/Commercial Rd,REGIONAL BUS,142.362035,-38.291387
17753,Hamilton Station/Station St,REGIONAL BUS,142.028270,-37.746600
17759,Willaura Kindergarten/Willaura-Wickliffe Rd ,REGIONAL BUS,142.742366,-37.544690
17760,CFA Station/Glenelg Hwy,REGIONAL BUS,142.722937,-37.690396
17761,CFA Station/Glenelg Hwy,REGIONAL BUS,142.723033,-37.690904
17763,Information Centre/Glenelg Hwy,REGIONAL BUS,142.840481,-37.712398
17773,Loader St/Glenelg Hwy,REGIONAL BUS,143.684337,-37.644978
17774,Loader St/Glenelg Hwy,REGIONAL BUS,143.684504,-37.645028
17776,Jetty Rd/Princes Hwy,REGIONAL BUS,148.007733,-37.874462
17799,Ararat Railway Station/High St ,REGIONAL BUS,142.936912,-37.282439
17801,Cuibitt St/Western Hwy,REGIONAL BUS,142.853451,-37.151495
17802,Cubitt St/Western Hwy,REGIONAL BUS,142.854822,-37.151939
17803,Stawell Station/Napier St ,REGIONAL BUS,142.773548,-37.059259
17809,McDonald St/Marma St,REGIONAL BUS,142.470229,-36.620116
17810,Walter St/Cromie St,REGIONAL BUS,142.631409,-36.631407
17812,Main St/Church St,REGIONAL BUS,142.587377,-36.460291
17816,Scott St/Woolcock St,REGIONAL BUS,142.395333,-36.250911
17817,Swann St/Henty Hwy,REGIONAL BUS,142.421041,-36.076742
17818,Swann St/Henty Hwy,REGIONAL BUS,142.421277,-36.076499
17821,Hogans Newsagent/Phillips St,REGIONAL BUS,142.420908,-35.939399
17825,Austin St/Henty Hwy,REGIONAL BUS,142.364362,-35.726589
17826,Austin St/Henty Hwy,REGIONAL BUS,142.364671,-35.726970
17827,Coach Terminal/24 Roberts Ave,REGIONAL BUS,142.200519,-36.714191
17828,Fisher St/Western Hwy,REGIONAL BUS,142.118327,-36.584692
17829,Fisher St/Western Hwy,REGIONAL BUS,142.118188,-36.584767
17831,Car Park Rear Toilet Block/Lloyd St,REGIONAL BUS,142.026636,-36.453631
17835,Information Centre/Western Hwy,REGIONAL BUS,141.649122,-36.333917
17837,Kaniva Community Roadhouse/Western Hwy,REGIONAL BUS,141.240840,-36.378832
17840,Caltex Station/Calder Hwy,REGIONAL BUS,142.318754,-35.069387
17841,Caltex Station/Calder Hwy,REGIONAL BUS,142.319038,-35.069597
17963,Miners Rest Hotel/138 McKenzie St,REGIONAL BUS,145.592145,-38.595752
17967,Seaward Dr/Cape Paterson Rd,REGIONAL BUS,145.621155,-38.667476
17968,Seaward Dr/Cape Paterson Rd,REGIONAL BUS,145.620965,-38.667771
17969,Ramsay Bvd/The Esplanade,REGIONAL BUS,145.729677,-38.634606
17970,Gurdies - St Helier Rd/Bass Hwy,REGIONAL BUS,145.563053,-38.371534
17973,Red Cliffs Post Office/Indi Ave ,REGIONAL BUS,142.187573,-34.307233
17976,Mildura Station/Seventh St ,REGIONAL BUS,142.163234,-34.182106
17977,General Store/Sunraysia Hwy,REGIONAL BUS,142.424803,-35.345315
17978,General Store/Sunraysia Hwy,REGIONAL BUS,142.424623,-35.344984
17979,Service Station/Sunraysia Hwy,REGIONAL BUS,142.438837,-35.401944
17980,Service Station/Sunraysia Hwy,REGIONAL BUS,142.438659,-35.401784
17983,Boree St/Sunraysia Hwy,REGIONAL BUS,142.579257,-35.607881
17984,Boree St/Sunraysia Hwy,REGIONAL BUS,142.579292,-35.607846
17985,Woomelang Station/Sunraysia Hwy,REGIONAL BUS,142.664425,-35.682470
17986,Woomelang Station/Sunraysia Hwy,REGIONAL BUS,142.664299,-35.682556
17987,Memorial Park/Cumming Ave,REGIONAL BUS,142.917912,-35.981265
17989,Post Office/Sunraysia Hwy,REGIONAL BUS,142.982667,-36.370667
17991,Dundas St/Market St,REGIONAL BUS,143.258620,-36.615295
17997,Havelock St/Clarendon St,REGIONAL BUS,143.736115,-37.047050
18000,Avoca Hotel/Sunraysia Hwy,REGIONAL BUS,143.473875,-37.089019
18001,Avoca Information Centre/Sunraysia Hwy,REGIONAL BUS,143.474402,-37.088818
1801,199 High St,REGIONAL BUS,143.471251,-37.080859
18335,Michael St/Princes Hwy,REGIONAL BUS,145.456058,-38.061862
18686,Post Office/Myrtle St,REGIONAL BUS,146.724970,-36.561292
18687,Post Office/Myrtle St,REGIONAL BUS,146.725080,-36.561643
18688,Bailey St/Nicholson St,REGIONAL BUS,146.911424,-36.700154
18689,Alpine Hotel/Anderson St,REGIONAL BUS,146.960433,-36.728352
18690,Falls Creek Coaches/233 Kiewa Valley Hwy,REGIONAL BUS,147.160987,-36.737986
1937,Webster St/Dunlop St,REGIONAL BUS,142.804804,-38.080954
19517,Cambells Bridge Rd/Donald-Stawell Rd ,REGIONAL BUS,142.785570,-36.916096
19521,6006 Donald -Stawell Rd,REGIONAL BUS,142.785563,-36.814146
19523,Park Rd/Donald Stawell Rd,REGIONAL BUS,142.869764,-36.671363
19793,Park Rd/Donald Stawell Rd,REGIONAL BUS,142.869829,-36.671410
19794,6003 Donald Stawell Rd,REGIONAL BUS,142.785642,-36.814130
19795,Greens Creek Rd/Donald -Stawell Rd,REGIONAL BUS,142.785663,-36.916243
19798,Stawell Leisure Centre/Houston St ,REGIONAL BUS,142.779451,-37.051524
19799,Community Health Centre/Patrick St,REGIONAL BUS,142.783732,-37.055802
20816,Sunbury Station/Brook St,REGIONAL BUS,144.728552,-37.579124
20830,Gisborne Station/Early St,REGIONAL BUS,144.598947,-37.459200
20831,Riddells Creek Station/Hamilton St ,REGIONAL BUS,144.679362,-37.464547
20832,Clarkefield Station/Station St ,REGIONAL BUS,144.745759,-37.483424
20847,BP Roadhouse/Homburg Tce,REGIONAL BUS,140.913710,-35.260568
20849,General Store/Mallee Hwy,REGIONAL BUS,141.810266,-35.169859
20850,General Store/Mallee Hwy,REGIONAL BUS,142.023832,-35.135942
20856,Nowa Nowa General Store/Princes Hwy,REGIONAL BUS,148.091596,-37.732313
20863,Genoa Hotel/Alexanders Rd,REGIONAL BUS,149.592003,-37.475060
20884,Maldon Post Office/High St,REGIONAL BUS,144.068003,-36.995972
20889,Morrissey St/Waverley Ave ,REGIONAL BUS,145.132026,-36.371854
20890,Goornong Station/Midland Hwy,REGIONAL BUS,144.505060,-36.615226
20902,Raymond Island Ferry Terminal/Devon Rd,REGIONAL BUS,147.725064,-37.919101
20903,Latrobe Regional Hospital,REGIONAL BUS,146.470309,-38.218914
20916,Trentham Milk Bar/Market St,REGIONAL BUS,144.322911,-37.389574
21188,Scott St/Lyle St,REGIONAL BUS,142.395424,-36.253337
21708,Horsham Station/Railway Ave ,REGIONAL BUS,142.200784,-36.707790
21710,Nowa Nowa/Princes Hwy,REGIONAL BUS,148.089191,-37.733903
22086,Falls Rd/Pack Rd,REGIONAL BUS,145.747136,-37.510883
22087,Buxton Rise/Maroondah Hwy,REGIONAL BUS,145.708796,-37.423151
22088,Buxton Rise/Maroondah Hwy,REGIONAL BUS,145.708983,-37.422126
22089,3321 Maroondah Hwy,REGIONAL BUS,145.712105,-37.323564
22090,3313 Maroondah Hwy,REGIONAL BUS,145.712359,-37.323873
22091,Perkins St/Grant St,REGIONAL BUS,145.709077,-37.190962
22092,Taggerty-Thornton Rd/Goulburn Valley Hwy,REGIONAL BUS,145.797680,-37.254646
22093,Taggerty-Thornton Rd/Goulburn Valley Hwy,REGIONAL BUS,145.797532,-37.254744
22094,Eildon SC/Main St,REGIONAL BUS,145.909664,-37.232629
22613,Longerenong Rd/Henty Hwy,REGIONAL BUS,142.255097,-36.661141
22694,Corryong Newsagency/Murray Valley Hwy,REGIONAL BUS,147.904806,-36.195798
22695,Miners Rest Tavern/Howe St,REGIONAL BUS,143.801280,-37.481040
22697,Learmonth General Store/Sunraysia Hwy,REGIONAL BUS,143.713471,-37.420838
22698,Laidlaw St/Sunraysia Hwy,REGIONAL BUS,143.714003,-37.420547
22699,Hall St/Sunraysia Hwy,REGIONAL BUS,143.638045,-37.358178
22700,Hall St/Sunraysia Hwy,REGIONAL BUS,143.637783,-37.357720
22703,Quire Rd/Buchan Rd,REGIONAL BUS,148.124491,-37.544866
22704,Quire Rd/Buchan South Rd,REGIONAL BUS,148.125234,-37.546130
22706,Buchan - Orbost Rd/Buchan Rd,REGIONAL BUS,148.172240,-37.498723
22707,Gormandale - Stradbroke Rd/Hyland Hwy,REGIONAL BUS,146.701585,-38.294344
22854,Baringhup Caravan Park/Baringhup Rd,REGIONAL BUS,143.974740,-36.979465
22855,Tulloch Ard Rd/Gelantipy Rd,REGIONAL BUS,148.263184,-37.227423
22856,W Tree Co-op/Gelantipy Rd,REGIONAL BUS,148.225381,-37.358326
22857,Lake Bunga Beach Rd/Princes Hwy,REGIONAL BUS,148.028260,-37.860856
22859,Carinya Lodge/Carinya Cres,REGIONAL BUS,145.811525,-38.437994
22860,IGA Supermarket/1 South Railway Cres,REGIONAL BUS,145.825996,-38.433733
22863,Nalder Dr/Werrill St,REGIONAL BUS,143.557859,-35.359955
22871,Tobin St/Montgomery St,REGIONAL BUS,142.920717,-37.294240
22872,Port Fairy Rd/Montgomery St,REGIONAL BUS,142.924028,-37.294525
22875,Vanstan St/High St St,REGIONAL BUS,142.917652,-37.285667
22876,Brewster Rd/High St,REGIONAL BUS,142.915306,-37.286108
22878,Mackay St/Henderson St,REGIONAL BUS,142.915387,-37.281895
22886,Mudgegonga Primary School/Myrtleford - Yackandandah Rd,REGIONAL BUS,146.837172,-36.489953
22939,Fifth St/Hepburn Springs Rd,REGIONAL BUS,144.138554,-37.318365
22940,Mineral Springs Cres/Main Rd,REGIONAL BUS,144.138416,-37.310099
22948,Mt Egerton General Store/Main Rd,REGIONAL BUS,144.104774,-37.627042
22949,Oasis Village/Cobram - Koonoomoo Rd,REGIONAL BUS,145.635859,-35.916457
22963,Blacks Lane/Hopkins Hwy,REGIONAL BUS,142.620809,-38.279656
22964,Tomlinsons Lane/Hopkins Hwy,REGIONAL BUS,142.657675,-38.220722
22965,Ellerslie - Panmure Rd/Hopkins Hwy,REGIONAL BUS,142.685128,-38.149351
22976,Bendigo Bank/Maurice Ave,REGIONAL BUS,149.757707,-37.557577
22977,Township/Gipsy Point Rd,REGIONAL BUS,149.679312,-37.480419
22978,McMillan St/George St,REGIONAL BUS,142.034726,-37.744010
22980,South West TAFE/200 Ballarat Rd ,REGIONAL BUS,142.058637,-37.743747
22981,Hamilton Base Hospital/Foster St,REGIONAL BUS,142.029581,-37.737201
22982,Lonsdale St/McIntyre St,REGIONAL BUS,142.017599,-37.744573
22983,McPhee St/Kenny St,REGIONAL BUS,142.007756,-37.735655
22984,Kent Rd/Hammond St ,REGIONAL BUS,142.006318,-37.726859
22986,Kent Rd/Gordon St,REGIONAL BUS,142.019201,-37.728153
22988,Garton St/Learmonth St,REGIONAL BUS,142.028383,-37.737312
22989,Monegeetta Milk Bar/Melbourne-Lancefield Rd,REGIONAL BUS,144.749290,-37.413955
22994,Chemist/Federal St,REGIONAL BUS,141.993917,-35.898088
22995,Woods St/Byrne St,REGIONAL BUS,142.053019,-35.769792
22996,Roy St/Dimboola - Rainbow Rd,REGIONAL BUS,141.988317,-36.142373
22997,Tarranyurk West Rd/Dimboola - Rainbow Rd,REGIONAL BUS,142.034213,-36.208948
22998,Antwerp Woorak Rd/Dimboola - Rainbow Rd,REGIONAL BUS,142.025463,-36.297719
23030,Williamson St/Sunraysia Hwy,REGIONAL BUS,143.514971,-37.274770
23031,Williamson St/Sunraysia Hwy,REGIONAL BUS,143.514603,-37.274444
23034,Maroona General Store/Mortlake - Ararat Rd,REGIONAL BUS,142.859315,-37.440604
23179,Havelock St/Neill St,REGIONAL BUS,143.381544,-37.429530
23202,Aquamoves/Tom Collins Dr,REGIONAL BUS,145.394445,-36.386027
23253,Australia Post/Mollison St,REGIONAL BUS,144.453435,-37.247805
23254,Roderick St/High St,REGIONAL BUS,144.348207,-37.138329
23255,Elphinstone Hotel/14 Wright St,REGIONAL BUS,144.332553,-37.103292
23256,Pitman St/Main Rd,REGIONAL BUS,144.266749,-37.081336
23259,Princes Hwy/Regent St,REGIONAL BUS,142.228914,-38.380528
23324,Milk Bar/Wangaratta - Whitfield Rd,REGIONAL BUS,146.378876,-36.575785
23325,Edi Cheshunt Rd/Wangaratta - Whitfield Rd,REGIONAL BUS,146.421549,-36.647758
23326,King Valley Primary School/Wangaratta - Whitfield Rd,REGIONAL BUS,146.416806,-36.701003
23327,Valley View Dr/Wangaratta - Whitfield Rd,REGIONAL BUS,146.414534,-36.764420
23328,Edi Cheshunt Rd/King Valley Rd,REGIONAL BUS,146.430489,-36.799267
23513,Castlemaine Hospital/Cornish St,REGIONAL BUS,144.212414,-37.054586
23514,Anslow St/High St,REGIONAL BUS,144.528379,-37.356228
23515,Campbells Creek Post Office/Main Rd,REGIONAL BUS,144.203696,-37.093599
2574,Tarrington Lutheran School/Hamilton Hwy,REGIONAL BUS,142.094411,-37.766074
2624,Camperdown Station/Longmore St ,REGIONAL BUS,143.150667,-38.228865
2627,Colac Station/Gellibrand St ,REGIONAL BUS,143.586405,-38.342569
266,Bells Rd/Glenelg Hwy,REGIONAL BUS,143.768954,-37.596612
27640,Gilbert Cres/Henty Hwy,REGIONAL BUS,142.205395,-36.737362
27641,Mclean Dr/River Rd,REGIONAL BUS,142.202477,-36.730517
27642,Bolton St/Ocallaghans Pde,REGIONAL BUS,142.202861,-36.721121
27643,Guide & Scout Hall Reserve/Baillie St,REGIONAL BUS,142.194213,-36.711811
27644,Horsham Racecourse & Recreation Reserve/Baillie St,REGIONAL BUS,142.189972,-36.711846
27645,Horsham Racecourse & Recreation Reserve/Baillie St,REGIONAL BUS,142.189992,-36.711694
27646,Horsham College/High St,REGIONAL BUS,142.186520,-36.711238
27647,Federation University Melbourne/Baillie St,REGIONAL BUS,142.185408,-36.711850
27648,Horsham College/Baillie St,REGIONAL BUS,142.185539,-36.711721
27649,Horsham West & Haven Primary School - West Campus/Hillary St,REGIONAL BUS,142.180296,-36.716488
27650,Hillary St/Natimuk Rd,REGIONAL BUS,142.182842,-36.719960
27651,Philip St/Churchill Rd,REGIONAL BUS,142.184631,-36.718717
27652,Elizabeth St/Churchill Rd,REGIONAL BUS,142.184153,-36.716176
27653,Dougherty St/Churchill Rd,REGIONAL BUS,142.182836,-36.713439
27654,Ritchie Ct/Baillie St,REGIONAL BUS,142.180166,-36.712313
27655,Bennett Rd/Natimuk Rd,REGIONAL BUS,142.186232,-36.718692
27656,Shopping Square/Wilson St,REGIONAL BUS,142.193659,-36.716562
27657,Wavell St/Kalkee Rd,REGIONAL BUS,142.200735,-36.702826
27658,Dudley W.Cornell Park/Kalkee Rd,REGIONAL BUS,142.200958,-36.703195
27659,Motavu Dr/Kalkee Rd,REGIONAL BUS,142.201718,-36.699254
27660,Horsham Primary School - Rasmussen Campus/Rasmussen Rd,REGIONAL BUS,142.203610,-36.696890
27661,Horsham Primary School - Rasmussen Campus/Rasmussen Rd,REGIONAL BUS,142.203447,-36.697000
27662,Horsham Primary School - Rasmussen Campus/Albert St,REGIONAL BUS,142.205594,-36.698078
27663,Watts St/Albert St,REGIONAL BUS,142.204933,-36.701329
27664,Palm Ave/Edith St,REGIONAL BUS,142.212151,-36.704322
27665,Palm Ave/Edith St,REGIONAL BUS,142.212209,-36.704459
27666,Knowles St/Pryors Rd,REGIONAL BUS,142.216849,-36.704313
27667,Knowles St/Pryors Rd,REGIONAL BUS,142.216606,-36.704439
27668,Royal Ct/Knowles St,REGIONAL BUS,142.217583,-36.705991
27669,Webster St/Lawrence St,REGIONAL BUS,142.215515,-36.707592
2767,Austin St/Warncoort-Birregurra Rd,REGIONAL BUS,143.783436,-38.336190
27670,Trinity Dr/Culliver St,REGIONAL BUS,142.214193,-36.708709
27671,Sunnyside Horsham Bowling Club/Olga Ave,REGIONAL BUS,142.212462,-36.709927
27672,Wimmera Base Hospital/Baillie St,REGIONAL BUS,142.209180,-36.711623
27673,Burgess St/Oconnor St,REGIONAL BUS,142.187804,-36.709660
27674,James St/Oconnor St,REGIONAL BUS,142.189686,-36.709079
27675,Stewart St/Hazel St,REGIONAL BUS,142.193246,-36.706521
27677,Wawunna Rd/Wavell St,REGIONAL BUS,142.195880,-36.702665
27690,Stawell Gift Hall of Fame/Main St,REGIONAL BUS,142.772966,-37.058211
27691,Frayne St/Barnes St,REGIONAL BUS,142.772158,-37.056579
27692,Stawell Cemetery/Barnes St,REGIONAL BUS,142.767232,-37.055628
27693,Agnes St/Mary St,REGIONAL BUS,142.768217,-37.053466
27694,Rose St/Bennett St,REGIONAL BUS,142.770795,-37.053188
27695,Franklin St/Lilian St,REGIONAL BUS,142.770821,-37.050910
27696,Gertrude St/White St,REGIONAL BUS,142.770041,-37.048351
27697,Franklin St/Ligar St,REGIONAL BUS,142.772249,-37.050277
27698,Lamont St/Ligar St,REGIONAL BUS,142.774141,-37.052641
27699,Houston St/Ligar St,REGIONAL BUS,142.775161,-37.053903
27700,Mayes St/Houston St,REGIONAL BUS,142.777324,-37.052989
27701,Newington Rd/Houston St,REGIONAL BUS,142.779056,-37.051961
27702,Walker St/Dalton St,REGIONAL BUS,142.777955,-37.049724
27703,Smale St/Walker St,REGIONAL BUS,142.779515,-37.048347
27704,Walker St/Darlington Rd,REGIONAL BUS,142.781403,-37.047324
27705,Sumner St/Woods St,REGIONAL BUS,142.781739,-37.045121
27706,Short St/Moonlight St,REGIONAL BUS,142.783575,-37.047077
27707,Byrne St/Moonlight St,REGIONAL BUS,142.786095,-37.050059
27708,Gordon St/Main St,REGIONAL BUS,142.786742,-37.051577
27709,Fisher St/Main St,REGIONAL BUS,142.784470,-37.053631
27710,Upper Clemes St/Fisher St,REGIONAL BUS,142.786352,-37.055968
27711,Stawell Health & Community Centre/Patrick St ,REGIONAL BUS,142.783819,-37.055860
27712,Sloane St/St George St,REGIONAL BUS,142.779605,-37.059078
27713,Stawell Bowling Club/Napier St,REGIONAL BUS,142.776897,-37.060684
27714,Shirreff St/Doyle St,REGIONAL BUS,142.774063,-37.061520
27715,Robinson St/Shirreff St,REGIONAL BUS,142.771718,-37.060842
27716,Stone St/Seaby St,REGIONAL BUS,142.768873,-37.059866
27717,Griffiths St/Smith St,REGIONAL BUS,142.765425,-37.060419
27718,Austin St/Darcy St,REGIONAL BUS,142.761758,-37.060278
27719,Western Hwy/Playford St,REGIONAL BUS,142.758507,-37.060522
27720,Stawell Motel/Longfield St,REGIONAL BUS,142.760655,-37.062320
27721,Stawell Historical Society Inc/Longfield St,REGIONAL BUS,142.763250,-37.063349
27722,Stawell Grampians Gate Caravan Park/Seaby St,REGIONAL BUS,142.763905,-37.066129
27723,Western Hwy/Foster St,REGIONAL BUS,142.766804,-37.065945
27724,Little Cooper Lane/Seaby St,REGIONAL BUS,142.765127,-37.063750
27725,Foster St/Cooper St,REGIONAL BUS,142.767895,-37.063903
27726,Stawell West Primary School/Cooper St,REGIONAL BUS,142.771824,-37.065403
27727,Warren St/Sloane St,REGIONAL BUS,142.774686,-37.066091
27728,Freeland Ave/Kingston Ave,REGIONAL BUS,142.777138,-37.065260
27729,Simpson St/Dawson St,REGIONAL BUS,142.777652,-37.063287
27730,Colquhoun St/Wakeham St,REGIONAL BUS,142.781098,-37.063779
27731,Colquhoun St/Napier St,REGIONAL BUS,142.783795,-37.063776
27732,The Plantation Retirement Village/Napier St,REGIONAL BUS,142.788570,-37.066054
27733,London Rd/Napier St,REGIONAL BUS,142.791571,-37.067476
27734,Eventide Homes Retirement Village/Oregan St,REGIONAL BUS,142.792758,-37.064924
27735,Eventide Homes Retirement Village/Williams St,REGIONAL BUS,142.792167,-37.063624
27736,Eventide Homes Retirement Village/Hastings St,REGIONAL BUS,142.790796,-37.063008
27737,Stawell Secondary College/Patrick St,REGIONAL BUS,142.788207,-37.061249
27738,Grant St/Patrick St,REGIONAL BUS,142.787015,-37.059630
27740,Irwin Rd/Enterprise Dr,REGIONAL BUS,146.013796,-36.542286
27741,Benalla Tourist Park/Sydney Rd,REGIONAL BUS,146.008965,-36.543517
27742,Evans St/Sydney Rd,REGIONAL BUS,146.006906,-36.544681
27743,Australian Christian College - Hume/Sydney Rd,REGIONAL BUS,145.998956,-36.547770
27751,Desailly St/Foster St,REGIONAL BUS,147.064667,-38.111444
27752,Desailly St/Foster St,REGIONAL BUS,147.062991,-38.111706
27753,Punt Lane/McMillan St,REGIONAL BUS,147.066745,-38.113578
27754,Punt Lane/McMillan St,REGIONAL BUS,147.067030,-38.113677
27755,Marley St/Foster St,REGIONAL BUS,147.070154,-38.111242
27757,Millicent Ct/Cobains Rd,REGIONAL BUS,147.082687,-38.087855
27758,Cobains Rd/Evelyn Dr,REGIONAL BUS,147.076563,-38.087769
27759,Dawson St/Dryden Pl,REGIONAL BUS,147.078609,-38.092752
27760,Macalister St/York St,REGIONAL BUS,147.068476,-38.109774
27761,Macalister St/York St,REGIONAL BUS,147.068191,-38.109945
27762,MacArthur St/York St,REGIONAL BUS,147.068278,-38.106052
27763,Fitzroy St/York St,REGIONAL BUS,147.067772,-38.101402
27764,Fitzroy St/York St,REGIONAL BUS,147.068057,-38.101302
27765,Maffra-Sale Rd/York St,REGIONAL BUS,147.068360,-38.095543
27766,Maffra-Sale Rd/York St,REGIONAL BUS,147.068554,-38.095606
27767,York St/Maffra-Sale Rd,REGIONAL BUS,147.066726,-38.092101
27768,Rhodes Dr/Maffra-Sale Rd,REGIONAL BUS,147.066862,-38.091921
27769,Maffra-Sale Rd/Glebe Dr,REGIONAL BUS,147.059594,-38.087463
27770,Gooch Ct/Glebe Dr,REGIONAL BUS,147.056916,-38.088844
27771,Authors Way/Woondella Bvd,REGIONAL BUS,147.056047,-38.086753
27772,Maffra-Sale Rd/Woondella Bvd,REGIONAL BUS,147.055613,-38.084879
27773,Cantwell Dr/Princes Hwy,REGIONAL BUS,147.071197,-38.081031
27774,Ashton St/Cantwell Dr,REGIONAL BUS,147.069063,-38.079716
27775,Surkitt Bvd/Morgan St,REGIONAL BUS,147.067284,-38.078744
27776,Ashton St/Cantwell Dr,REGIONAL BUS,147.070568,-38.079652
27970,Longford Kindergarten/Longford-Loch Sport Rd,REGIONAL BUS,147.087348,-38.162540
27971,Longford Kindergarten/Longford-Loch Sport Rd,REGIONAL BUS,147.087520,-38.162729
27972,Charvel Rd/Longford-Loch Sport Rd ,REGIONAL BUS,147.100069,-38.165396
27973,Charlies St/Government Rd,REGIONAL BUS,147.568704,-38.057352
27974,Charlies St/Government Rd,REGIONAL BUS,147.568739,-38.057478
27975,First St/Lake St,REGIONAL BUS,147.576608,-38.050671
27976,First St/Lake St,REGIONAL BUS,147.577028,-38.050507
27977,Cliff St/Lake St,REGIONAL BUS,147.580931,-38.046810
27978,Cliff St/Lake St,REGIONAL BUS,147.580831,-38.047072
27979,Simon Ct/National Park Rd,REGIONAL BUS,147.587040,-38.045410
27980,Simon Ct/National Park Rd,REGIONAL BUS,147.587109,-38.045491
27981,Bream Rd/National Park Rd,REGIONAL BUS,147.591600,-38.041286
27982,Geofrey Ave/Horder St ,REGIONAL BUS,147.612264,-38.027977
27983,Goodlett Ave/National Park Rd,REGIONAL BUS,147.603104,-38.033594
28164,Southeast Bvd/Healesville-Koo Wee Rup Rd ,REGIONAL BUS,145.488826,-38.097453
28351,Skyline Rd/Twenty First St,REGIONAL BUS,145.897095,-37.234937
28352,Darlingford Nursing Home/High St,REGIONAL BUS,145.913391,-37.229788
28730,Dumbarton Way/Mulgutherie Way,REGIONAL BUS,144.578233,-37.490497
28731,Argyle St/Station Rd ,REGIONAL BUS,144.597139,-37.462001
28732,Argyle St/Station Rd ,REGIONAL BUS,144.597187,-37.462282
28734,Cherry Lane/Swinburne Ave,REGIONAL BUS,144.586199,-37.476296
28736,Station Rd/Cherry Lane ,REGIONAL BUS,144.591505,-37.477279
28738,Hamilton St/Goode St,REGIONAL BUS,144.586499,-37.487702
28739,Howey St/Penny Green Dr,REGIONAL BUS,144.584832,-37.492074
28741,Dalton St/Melton Rd ,REGIONAL BUS,144.585450,-37.495701
28744,Fowler Ct/Willowbank Rd,REGIONAL BUS,144.587855,-37.499697
28746,Glenton Ct/Mt Gisborne Rd ,REGIONAL BUS,144.588566,-37.502902
28747,Belcher Way/Willowbank Rd ,REGIONAL BUS,144.590345,-37.499982
28748,Belcher Way/Willowbank Rd ,REGIONAL BUS,144.591025,-37.499960
28750,Willowbank Rd/Brady Rd ,REGIONAL BUS,144.597100,-37.500967
28751,Parkview St/Brady Rd ,REGIONAL BUS,144.596364,-37.504890
28752,Cherry Ballart Rd/Brady Rd ,REGIONAL BUS,144.596486,-37.504956
28753,Gordon Bvd/Brooking Rd ,REGIONAL BUS,144.602178,-37.510532
28754,Gordon Bvd/Brooking Rd ,REGIONAL BUS,144.601967,-37.510411
28755,Brooking Rd/McGeorge Rd ,REGIONAL BUS,144.609313,-37.510659
28756,Brooking Rd/McGeorge Rd ,REGIONAL BUS,144.609451,-37.510914
28757,Rothschild Rd/McGeorge Rd ,REGIONAL BUS,144.608841,-37.505945
28758,Rothschild Rd/McGeorge Rd ,REGIONAL BUS,144.609034,-37.505931
28759,Tasman Rd/Rothschild Rd ,REGIONAL BUS,144.604814,-37.504882
28760,Town Pl/Rothschild Rd ,REGIONAL BUS,144.604953,-37.504785
28761,Willowbank Rd/Childe Harold Rd ,REGIONAL BUS,144.604596,-37.502138
28762,Willowbank Rd/Childe Harold Rd ,REGIONAL BUS,144.604731,-37.502176
28763,Thompson Cl/Fersfield Rd ,REGIONAL BUS,144.605023,-37.497983
28764,Carnegie Ct/Fersfield Rd ,REGIONAL BUS,144.601226,-37.497536
28765,Keily Rd/Fersfield Rd,REGIONAL BUS,144.597585,-37.497129
28766,Howey St/Keily Rd,REGIONAL BUS,144.598317,-37.493368
28767,Worcester Rd/Howey St ,REGIONAL BUS,144.594643,-37.492608
28768,Worcester Rd/Howey St ,REGIONAL BUS,144.594906,-37.492505
28769,Howey St/Aitken St ,REGIONAL BUS,144.590652,-37.491157
28770,Fisher St/Aitken St ,REGIONAL BUS,144.590507,-37.491100
28771,Aitken St/Hamilton St,REGIONAL BUS,144.593226,-37.488137
28772,Jacksons Creek Way/Kilmore Rd ,REGIONAL BUS,144.600545,-37.484185
28773,Kumbari Ct/Peavey Rd,REGIONAL BUS,144.607884,-37.479216
28774,Saunders Rd/Monaghan Rd,REGIONAL BUS,144.605456,-37.473092
28775,Farrell St/Saunders Rd ,REGIONAL BUS,144.595804,-37.469436
28776,Farrell St/Saunders Rd ,REGIONAL BUS,144.595979,-37.469277
28777,Station Rd/Chessy Park Dr ,REGIONAL BUS,144.596930,-37.464286
28778,Lim Ct/Chessy Park Dr ,REGIONAL BUS,144.597136,-37.464227
28779,Gisborne Station/Early St,REGIONAL BUS,144.598487,-37.459443
28800,Pakenham Station/Railway Ave ,REGIONAL BUS,145.485627,-38.080055
296,Bells Rd/Glenelg Hwy,REGIONAL BUS,143.768909,-37.596358
32001,Mid Valley Shopping Centre/Mid Valley Dr,REGIONAL BUS,146.431304,-38.237153
32026,Morwell Bus Interchange/Commercial Rd,REGIONAL BUS,146.399020,-38.237542
32247,Brennan St/Ridgway St,REGIONAL BUS,146.157001,-38.400804
32297,Traralgon Plaza SC/Franklin St,REGIONAL BUS,146.538365,-38.194741
32402,Traralgon Station/Princes St ,REGIONAL BUS,146.537380,-38.198901
32423,Driffield Rd/Commercial Rd,REGIONAL BUS,146.384392,-38.233699
32424,Driffield Rd/Commercial Rd,REGIONAL BUS,146.383787,-38.233650
3429,Cameron Way/Racecourse Rd,REGIONAL BUS,145.493424,-38.076775
3430,Simon Dr/Racecourse Rd,REGIONAL BUS,145.494091,-38.073702
3431,Princes Hwy/Racecourse Rd,REGIONAL BUS,145.493623,-38.071506
3433,James St/Princes Hwy,REGIONAL BUS,145.480704,-38.071682
3434,McGregor Rd/Princes Hwy,REGIONAL BUS,145.477380,-38.071432
3448,Rundell Way/Princes Hwy,REGIONAL BUS,145.464771,-38.064941
3449,Warwick Bayley Oval/Princes Hwy,REGIONAL BUS,145.461743,-38.063631
3451,Cardinia Rd/Princes Hwy,REGIONAL BUS,145.436378,-38.063242
3452,McMullen Rd/Princes Hwy,REGIONAL BUS,145.418905,-38.062639
3453,Officer Recreation Reserve/Princes Hwy,REGIONAL BUS,145.414343,-38.061180
3454,Station St/Princes Hwy,REGIONAL BUS,145.408191,-38.059989
3455,Bayview Rd/Princes Hwy,REGIONAL BUS,145.405670,-38.059540
3456,Brunt Rd/Princes Hwy,REGIONAL BUS,145.390470,-38.056755
35007,Stockland SC/Gillies St N,REGIONAL BUS,143.823227,-37.534593
35015,Ballarat Grammar/Howitt St,REGIONAL BUS,143.830195,-37.539980
35016,Symons St/Howitt St,REGIONAL BUS,143.834517,-37.540501
35029,Ballarat Base Hospital/Sturt St,REGIONAL BUS,143.848243,-37.560628
35033,Doveton St/Sturt St,REGIONAL BUS,143.854471,-37.561371
35072,Bakery Hill Interchange/Curtis St,REGIONAL BUS,143.865102,-37.562095
35076,Little Bridge St Interchange/Little Bridge St,REGIONAL BUS,143.862046,-37.563176
35125,Ballarat Clarendon College/Sturt St,REGIONAL BUS,143.833757,-37.559267
35139,Stockland SC/Gillies St N,REGIONAL BUS,143.823066,-37.534121
35257,Raglan St/Albert St,REGIONAL BUS,143.894328,-37.424552
35264,Williams St/Clunes-Creswick Rd,REGIONAL BUS,143.889133,-37.410053
35266,Alfred St/Clunes-Creswick Rd,REGIONAL BUS,143.889380,-37.410078
35272,Raglan St/Albert St,REGIONAL BUS,143.894429,-37.424573
35279,Ballarat Station/Lydiard St N,REGIONAL BUS,143.858490,-37.558658
35280,Ballarat Base Hospital/Drummond St N,REGIONAL BUS,143.847677,-37.559018
35582,Rowes Rd/Castlemaine-Maldon Rd,REGIONAL BUS,144.074718,-37.009835
35585,Ray St/Maldon Rd,REGIONAL BUS,144.200461,-37.069913
35586,Elizabeth St/Johnstone St,REGIONAL BUS,144.207935,-37.072188
35587,Castlemaine RSL/Mostyn St,REGIONAL BUS,144.217222,-37.065792
35588,Castlemaine Railway Station/Kennedy St,REGIONAL BUS,144.214088,-37.062943
35881,Strath Village SC/Edwards Rd,REGIONAL BUS,144.304372,-36.774555
35882,La Trobe University Bendigo/Ellis St,REGIONAL BUS,144.300846,-36.777017
35887,Strath Village SC/Edwards Rd,REGIONAL BUS,144.304268,-36.774318
36184,Victoria Pl/Main St,REGIONAL BUS,142.782218,-37.055136
36185,Stawell Town Hall/Main St,REGIONAL BUS,142.779724,-37.056732
36191,Ward St/Roberts Ave,REGIONAL BUS,142.198505,-36.714191
36192,24 Roberts Ave,REGIONAL BUS,142.200498,-36.714172
36194,Appleton Ct/Smith St,REGIONAL BUS,142.206274,-36.713379
36196,Horsham Hospital/Baillie St,REGIONAL BUS,142.208892,-36.711756
36197,Harriet St/Urquhart St,REGIONAL BUS,142.202131,-36.708970
36199,Lynott St/Alexander Ave,REGIONAL BUS,142.198868,-36.704614
36201,Motavu Dr/Kalkee Rd,REGIONAL BUS,142.201595,-36.699069
36202,Knight Pl/Albert St,REGIONAL BUS,142.205298,-36.699588
36203,Hennessy St/Albert St,REGIONAL BUS,142.205059,-36.701100
36207,Langlands St/Albert St,REGIONAL BUS,142.205099,-36.703155
36209,Winifred St/Edith St,REGIONAL BUS,142.207441,-36.704339
36210,Forsyth Ave/Shirley St,REGIONAL BUS,142.210869,-36.702622
36211,Creek Cres/Forsyth Ave,REGIONAL BUS,142.210178,-36.701694
36212,Winifred St/Bowler St,REGIONAL BUS,142.208185,-36.702082
36214,Edith St/Shirley St,REGIONAL BUS,142.210206,-36.703937
36217,Baillie St/Urquhart St,REGIONAL BUS,142.202413,-36.712151
36218,Masonic Temple/Urquhart St,REGIONAL BUS,142.202430,-36.714755
36221,Horsham Plaza/Darlot St,REGIONAL BUS,142.197017,-36.715103
36226,Olga Ave/Cathcart St,REGIONAL BUS,142.212068,-36.709965
36227,Johnson St/Culliver Pl,REGIONAL BUS,142.214078,-36.708587
36230,Culliver St/Lawrence St,REGIONAL BUS,142.215320,-36.707503
36231,Royal Ct/Knowles St,REGIONAL BUS,142.217481,-36.705834
36249,De Castella Dr/Wavell St,REGIONAL BUS,142.188776,-36.702702
36250,Edward St/Florence St,REGIONAL BUS,142.187152,-36.704518
36251,Vermont St/Arnold St,REGIONAL BUS,142.188046,-36.706140
36252,Houston St/Arnold St,REGIONAL BUS,142.189190,-36.706636
36255,Lake Burrumbeet Caravan Park/Remembrance Dr,REGIONAL BUS,143.672345,-37.490034
36259,Wilson St/Gardenia St,REGIONAL BUS,142.192957,-36.717596
36260,Laurel St/Gardenia St,REGIONAL BUS,142.192974,-36.721622
36261,Iris St/Laurel St,REGIONAL BUS,142.190801,-36.722029
36263,Valentine Ave/Wilmoth Ave,REGIONAL BUS,142.186400,-36.720482
36264,Valentine Ave/Tena Ave,REGIONAL BUS,142.185182,-36.722072
36265,Kalimna Ave/Tena Ave,REGIONAL BUS,142.183316,-36.722753
36266,Farrar Ave/Dollar Ave,REGIONAL BUS,142.180727,-36.723719
36267,Federation Ave/Drummond St,REGIONAL BUS,142.178004,-36.723978
36268,Federation Ave/Windsor Cres,REGIONAL BUS,142.177097,-36.724518
36269,Elwin Ct/Windsor Cres,REGIONAL BUS,142.175962,-36.726381
36270,Fulton Ave/Hayes Dr,REGIONAL BUS,142.174477,-36.727950
36271,Dixon Ct/Barnes Bvd,REGIONAL BUS,142.171389,-36.729734
36272,Barnes Bvd/Lawson Cl,REGIONAL BUS,142.170082,-36.728447
36273,Hartigan Ct/Mintern Cres,REGIONAL BUS,142.173262,-36.727343
36274,Windsor Cres/Mintern Cres,REGIONAL BUS,142.174349,-36.726243
36276,Banool St/Natimuk Service Rd,REGIONAL BUS,142.177960,-36.721815
36277,Kooyong St/Natimuk Service Rd,REGIONAL BUS,142.180320,-36.720929
36288,Burgess St/Oconnor St,REGIONAL BUS,142.187459,-36.709637
36289,James St/Oconnor St,REGIONAL BUS,142.189282,-36.709090
36291,Park Dr/Baillie St,REGIONAL BUS,142.194690,-36.711695
36293,Trento Ave/Stawell Rd,REGIONAL BUS,142.205514,-36.727551
36294,Henty Hwy/Old Hamilton Rd,REGIONAL BUS,142.205696,-36.739184
36308,Harders St/74 Stawell Rd,REGIONAL BUS,142.205063,-36.731207
36309,Harders St/56 Stawell Rd,REGIONAL BUS,142.204993,-36.729808
36310,Trento Ave/Stawell Rd,REGIONAL BUS,142.204874,-36.727408
36311,Bolton St/Ocallaghans Pde,REGIONAL BUS,142.202789,-36.721371
36312,Sanderson St/Williams Rd,REGIONAL BUS,142.207689,-36.726044
36313,Raggatt St/Williams Rd,REGIONAL BUS,142.213481,-36.726098
36314,Deakin Ct/Mardon Dr,REGIONAL BUS,142.212735,-36.722979
36315,Hughes St/Barton Dr,REGIONAL BUS,142.210662,-36.723940
36317,Young St/Vine Ave,REGIONAL BUS,142.210290,-36.726852
36318,Tuson Ct/Young St,REGIONAL BUS,142.208633,-36.727244
36319,Vella St/Citrus Ave,REGIONAL BUS,142.206924,-36.728094
36320,Burnlea Dr/Shiralee Cres,REGIONAL BUS,142.208034,-36.730750
36321,Stawell Rd/Derry Pde,REGIONAL BUS,142.205967,-36.733035
36323,Agnew Ct/Major Mitchell Dr,REGIONAL BUS,142.199191,-36.724891
36324,River Rd/McTavish Bvd,REGIONAL BUS,142.202103,-36.726098
36328,Hamilton Town Centre/Brown St ,REGIONAL BUS,142.025131,-37.742514
36335,Burke St/Tuaggra St,REGIONAL BUS,143.741987,-37.047996
36341,Henty Street Bus Interchange/Henty St,REGIONAL BUS,141.602901,-38.346225
36342,All Saints Catholic Church/Henty St,REGIONAL BUS,141.605743,-38.346293
36343,Portland Hospital/Bentinck St,REGIONAL BUS,141.606604,-38.339328
36344,Hanlon Pde/Dutton St,REGIONAL BUS,141.605892,-38.331075
36346,Flinders St/Dutton St,REGIONAL BUS,141.603754,-38.331076
36347,Learmonth St/Hurd St,REGIONAL BUS,141.602224,-38.327674
36348,New St/Learmonth St,REGIONAL BUS,141.600457,-38.327313
36349,Moodie St/Richardson St,REGIONAL BUS,141.597471,-38.328571
36350,Athalie St/Richardson St,REGIONAL BUS,141.597482,-38.330273
36351,Osbourne St/Garden St,REGIONAL BUS,141.596767,-38.332041
36352,Stewart St/Garden St,REGIONAL BUS,141.593603,-38.332020
36353,Marriott Ct/Browning St,REGIONAL BUS,141.592540,-38.332637
36354,Kennedy St/Browning St,REGIONAL BUS,141.592386,-38.335772
36356,Mitchell Cres/Otway St,REGIONAL BUS,141.596153,-38.341826
36357,Community Health Centre/Otway St,REGIONAL BUS,141.600579,-38.341949
36358,Julia St/Bentinck St,REGIONAL BUS,141.606458,-38.348207
36359,Portland Library/Bentinck St,REGIONAL BUS,141.606024,-38.351276
36360,Cable Tram Depot/Bentinck St,REGIONAL BUS,141.606058,-38.354806
36361,Poland St/Must St,REGIONAL BUS,141.604383,-38.359798
36362,Adamson Ct/Must St,REGIONAL BUS,141.600671,-38.359437
36363,Portland Secondary College/Must St,REGIONAL BUS,141.596832,-38.359251
36364,Bundarra Primary School/Fawthrop St,REGIONAL BUS,141.593476,-38.360860
36365,Fawthrop St/Warratah Cres,REGIONAL BUS,141.593462,-38.364578
36366,Kauri Cres/Acacia St,REGIONAL BUS,141.595292,-38.365185
36367,Banyan Cres/Kauri Cres,REGIONAL BUS,141.596628,-38.366741
36368,Edgar St/Cape Nelson Rd,REGIONAL BUS,141.600970,-38.364178
36369,Cape Nelson Rd/Edgar St,REGIONAL BUS,141.604307,-38.363900
36370,Karinya Cres/Edgar St,REGIONAL BUS,141.607201,-38.364195
36371,Portland South Primary School/Edgar St,REGIONAL BUS,141.611569,-38.364649
36372,Wellington Rd/Edgar St,REGIONAL BUS,141.613455,-38.364826
36375,Peter St/Barkly St,REGIONAL BUS,141.617362,-38.361485
36376,Barkly St/Findlay St,REGIONAL BUS,141.617398,-38.360074
36377,Findlay St/Silvester St,REGIONAL BUS,141.618120,-38.359288
36378,Barkly St/Bancroft St,REGIONAL BUS,141.615153,-38.357206
36380,Julia St/Hurd St,REGIONAL BUS,141.600900,-38.347465
36381,Lava Street Interchange/Lava St,REGIONAL BUS,142.485904,-38.382379
36382,Warrnambool Base Hospital/Koroit St ,REGIONAL BUS,142.474241,-38.379515
36383,Koroit St/Murray St,REGIONAL BUS,142.472457,-38.378032
36384,Panorama Ave/Kerr St,REGIONAL BUS,142.473958,-38.374704
36388,Aitkins Place Village/Aitkins Rd,REGIONAL BUS,142.471383,-38.373434
36389,Panorama Ave/Kerr St,REGIONAL BUS,142.473954,-38.374398
36390,Warrnambool Base Hospital/Koroit St ,REGIONAL BUS,142.473528,-38.379019
36392,Lava Street Interchange/Lava St,REGIONAL BUS,142.486025,-38.382276
36393,Lava St/Kepler St,REGIONAL BUS,142.482408,-38.381010
36394,VicRoads/Jamieson St,REGIONAL BUS,142.485157,-38.376361
36395,Botanic Gardens/Jamieson St,REGIONAL BUS,142.487011,-38.375073
36397,Queens Rd/Allan St,REGIONAL BUS,142.489000,-38.369395
36403,Sundale Rd/Mortlake Rd,REGIONAL BUS,142.495693,-38.364033
36412,Sanwill Ave/Garden St,REGIONAL BUS,142.502953,-38.373868
36422,Karana Dr/Hopetoun Rd,REGIONAL BUS,142.474140,-38.364633
36426,Bromfield St/Donovans Rd ,REGIONAL BUS,142.484711,-38.366078
36429,Balmoral Rd/Mortlake Rd,REGIONAL BUS,142.497070,-38.362303
36430,Jason St/Balmoral Rd,REGIONAL BUS,142.500289,-38.361679
36431,Loyola Ave/Balmoral Rd,REGIONAL BUS,142.503221,-38.361981
36432,Kings College/Balmoral Rd,REGIONAL BUS,142.504796,-38.363708
36433,Sharpe Ave/Whites Rd ,REGIONAL BUS,142.511757,-38.368028
36437,Raglan Pde/Glenrowe Ave,REGIONAL BUS,142.512074,-38.383989
36438,Fleetwood Ct/Wanstead St,REGIONAL BUS,142.515191,-38.382236
36443,Princess St/Cramer St,REGIONAL BUS,142.490590,-38.379885
36451,Warrnambool College/Cramer St,REGIONAL BUS,142.496663,-38.376598
36452,City Bowls/Cramer St,REGIONAL BUS,142.494055,-38.377875
36453,Gateway Church Of Christ/Raglan Pde,REGIONAL BUS,142.514635,-38.383646
36455,Glynbeudy St/Raglan Pde,REGIONAL BUS,142.524889,-38.383796
36457,Homemaker Centre/Raglan Pde,REGIONAL BUS,142.531876,-38.384792
36458,Gateway Plaza,REGIONAL BUS,142.522114,-38.383897
36463,Henna St/Raglan Pde ,REGIONAL BUS,142.480212,-38.376783
36464,Morris Rd/Raglan Pde,REGIONAL BUS,142.464666,-38.367058
36465,Laverock Rd/Raglan Pde,REGIONAL BUS,142.468174,-38.369131
36466,Botanic Rd/Raglan Pde,REGIONAL BUS,142.474706,-38.372067
36471,Jamieson St/Canterbury Rd,REGIONAL BUS,142.483782,-38.376407
36475,Crawley St Reserve/Crawley St ,REGIONAL BUS,142.476654,-38.368153
36476,Price Pl/Crawley St,REGIONAL BUS,142.474850,-38.367552
36489,Pecten Ave/Morriss Rd ,REGIONAL BUS,142.464879,-38.362366
36492,Rutledge St/Raglan Pde,REGIONAL BUS,142.460695,-38.364707
36495,Warrnambool Station/Merri St,REGIONAL BUS,142.475688,-38.385110
36497,McMeekin Rd/Albert St,REGIONAL BUS,142.461287,-38.373159
36499,Russell St/Drummond St ,REGIONAL BUS,142.446446,-38.356462
36500,Rooneys Rd/Raglan Pde ,REGIONAL BUS,142.456282,-38.362122
36503,CFA District Workshop/McMeekin Rd,REGIONAL BUS,142.459863,-38.373987
36504,Archie Graham Centre/Timor St,REGIONAL BUS,142.484135,-38.386156
36505,Olde Maritime Motor Inn/Banyan St,REGIONAL BUS,142.483701,-38.387986
36506,Beach Kiosk/Pertobe Rd ,REGIONAL BUS,142.481487,-38.392845
36507,Port Warrnambool Village/Pertobe Rd,REGIONAL BUS,142.473269,-38.395994
36508,Edina St/Stanley St ,REGIONAL BUS,142.469978,-38.394813
36509,Elliot St/MacDonald St,REGIONAL BUS,142.469291,-38.391896
36510,Anderson St/Harris St,REGIONAL BUS,142.470376,-38.388813
36511,Wellington St/Merrivale Dr,REGIONAL BUS,142.467625,-38.383411
36515,Landmann St/Merrivale Dr,REGIONAL BUS,142.456949,-38.378674
36516,Merrivale Reserve/Merrivale Dr,REGIONAL BUS,142.454110,-38.377059
36517,Granter St/Mcmeekin Rd,REGIONAL BUS,142.455723,-38.374690
36520,Warrnambool Bowls Club/Timor St,REGIONAL BUS,142.486528,-38.387230
36521,Foster St/Timor St,REGIONAL BUS,142.490934,-38.389255
36523,Warrnambool East PS/Nicholson St,REGIONAL BUS,142.498772,-38.388693
36524,Belmore Rd/Gladstone St,REGIONAL BUS,142.505100,-38.392755
36525,Marfell Rd/Gladstone St,REGIONAL BUS,142.505416,-38.395775
36526,Hopkins Rd/Marfell Rd,REGIONAL BUS,142.508156,-38.396429
36527,Belmore Rd/Gladstone St,REGIONAL BUS,142.504960,-38.392794
36529,EJ King Park/Simpson St,REGIONAL BUS,142.510917,-38.389556
36532,Turn In Motel/Simpson St,REGIONAL BUS,142.511327,-38.386987
36538,Turn In Motel/Simpson St,REGIONAL BUS,142.511459,-38.387082
36539,Warrnambool East PS/Nicholson St,REGIONAL BUS,142.499407,-38.388789
36542,Walsh Rd/Raglan Pde,REGIONAL BUS,142.458790,-38.364075
36543,Brauer College/Caramut Rd,REGIONAL BUS,142.460376,-38.359210
36544,Hood St/Raglan Pde,REGIONAL BUS,142.442096,-38.358157
36548,Anne St/High St,REGIONAL BUS,142.373728,-38.302827
36550,Port Fairy Visitor Centre/Bank St,REGIONAL BUS,142.238888,-38.383519
36551,Killarney Shop/Koroit-Port Fairy Rd,REGIONAL BUS,142.323181,-38.337795
36552,Port Fairy Rd/Port Fairy Rd,REGIONAL BUS,142.329055,-38.313490
36555,Hood St/Raglan Pde,REGIONAL BUS,142.442072,-38.358183
36578,Deakin University/Cafeteria Lane,REGIONAL BUS,142.538277,-38.391206
36580,Skenes Creek Valley Rd/Great Ocean Rd,REGIONAL BUS,143.710315,-38.724598
36584,Polwarth St/Wallace St,REGIONAL BUS,143.597832,-38.341838
36586,Baronga Motor Inn/Murray St,REGIONAL BUS,143.595377,-38.338326
36587,Colac East Kindergarten/Polwarth St,REGIONAL BUS,143.596205,-38.335800
36588,Church St/Chapel St,REGIONAL BUS,143.598910,-38.334699
36589,Colac Showground/Bruce St,REGIONAL BUS,143.603138,-38.335272
36590,Pell Ct/Murray St,REGIONAL BUS,143.601418,-38.336835
36592,Colac Tennis and Croquet Club/Church St,REGIONAL BUS,143.600278,-38.338216
36593,Telstra Tower/Queen St,REGIONAL BUS,143.592338,-38.343372
36594,Wheal St/Queen St,REGIONAL BUS,143.591498,-38.347870
36595,Wheal St/Stewart St,REGIONAL BUS,143.589457,-38.347252
36596,Colac Hospital/Miller St ,REGIONAL BUS,143.583142,-38.341915
36597,Jennings St/Cants Rd,REGIONAL BUS,143.569180,-38.338913
36598,Wynne St/Sinclair St,REGIONAL BUS,143.572250,-38.334922
36599,Sears Ct/Sinclair St,REGIONAL BUS,143.572910,-38.331355
36600,Walls Ct/Donaldson St,REGIONAL BUS,143.571958,-38.330445
36601,Moore St/Bilson St,REGIONAL BUS,143.568524,-38.332695
36602,Alexander St/Moore St,REGIONAL BUS,143.573259,-38.333420
36603,Wynne St/McDonald St,REGIONAL BUS,143.575877,-38.334893
36604,Colac West Primary School/Ligar St,REGIONAL BUS,143.578326,-38.335838
36605,Colac Bus Interchange/Gellibrand St,REGIONAL BUS,143.587140,-38.339347
36606,Farrells Rd/Bullock Swamp Rd,REGIONAL BUS,143.557360,-38.249353
36611,Highview Christian College/Kars St,REGIONAL BUS,143.736070,-37.052572
36614,George Cook Rd/Ballarat - Maryborough Rd,REGIONAL BUS,143.726779,-37.093727
36617,Old Ballarat Rd/Ballarat - Maryborough Rd,REGIONAL BUS,143.703827,-37.196978
36618,Butcher/Clunes - Campbelltown Rd,REGIONAL BUS,143.787094,-37.294100
36619,Clunes IGA/Clunes - Campbelltown Rd,REGIONAL BUS,143.787151,-37.294345
36628,Old Echuca Post Office/Hare St,REGIONAL BUS,144.749127,-36.125853
36629,Masonic Hall/High St,REGIONAL BUS,144.748136,-36.127881
36630,Pakenham St/High St,REGIONAL BUS,144.748246,-36.128297
36631,Echuca Cinema/High St,REGIONAL BUS,144.748673,-36.130108
36632,Darling St/High St,REGIONAL BUS,144.748905,-36.130933
36633,Echuca Regional Health/Leichardt St,REGIONAL BUS,144.748446,-36.137243
36634,Haverfield St/Leichardt St,REGIONAL BUS,144.746303,-36.137599
36635,Medical Centre/Hopwood St,REGIONAL BUS,144.748132,-36.140094
36636,Echuca South Recreation Res/High St,REGIONAL BUS,144.751752,-36.142109
36637,McKenzie St/Stokes St,REGIONAL BUS,144.745744,-36.145070
36638,Randell Ct/McKenzie St,REGIONAL BUS,144.742975,-36.141664
36639,Ogilvie St/Campaspe Esp,REGIONAL BUS,144.739583,-36.139807
36640,McSwain Rd/Northern Hwy,REGIONAL BUS,144.729881,-36.145635
36642,Northern Hwy/Rose St,REGIONAL BUS,144.730645,-36.144189
36643,Crossenvale SC/Dobinson St,REGIONAL BUS,144.733809,-36.141203
36644,Pevensey Pl/Elizabeth St,REGIONAL BUS,144.731599,-36.136898
36645,Crossen St/Elizabeth St,REGIONAL BUS,144.734521,-36.136917
36646,Campaspe Esp/Elizabeth St,REGIONAL BUS,144.737511,-36.136901
36647,Randell Ct/McKenzie St,REGIONAL BUS,144.742985,-36.141295
36648,Martin St/McKenzie St,REGIONAL BUS,144.743665,-36.143949
36649,Haverfield St/Minor St,REGIONAL BUS,144.747773,-36.144098
36650,High St/Minor St,REGIONAL BUS,144.750866,-36.143580
36651,Ash St/High St,REGIONAL BUS,144.751297,-36.141325
36652,Glanville Village/Haverfield St,REGIONAL BUS,144.746185,-36.139003
36653,Haverfield St/Leichardt St,REGIONAL BUS,144.746229,-36.137471
36654,Echuca Regional Health/Leichardt St,REGIONAL BUS,144.748484,-36.137108
36655,Echuca Primary School/High St,REGIONAL BUS,144.747895,-36.128147
36656,Sturt St/Pakenham St,REGIONAL BUS,144.753293,-36.127815
36657,Hovell St/Pakenham St,REGIONAL BUS,144.755989,-36.127559
36658,Pakenham St/Goulburn Rd,REGIONAL BUS,144.762110,-36.128017
36659,Bowen St/Goulburn Rd,REGIONAL BUS,144.764590,-36.128703
36660,Bowen St/Darling St,REGIONAL BUS,144.764266,-36.129147
36661,Sutton St/Darling St,REGIONAL BUS,144.760212,-36.129486
36662,Mckinlay St/Mitchell St,REGIONAL BUS,144.758672,-36.131305
36663,Barry St/McKinlay St,REGIONAL BUS,144.761950,-36.131285
36664,Eyre St/Stawell St,REGIONAL BUS,144.763282,-36.132915
36665,Echuca East Primary School/Eyre St,REGIONAL BUS,144.760706,-36.133624
36666,Echuca East Reserve/Sutton St,REGIONAL BUS,144.761016,-36.137569
36667,Federal St/Bowen St,REGIONAL BUS,144.765076,-36.139005
36668,Service St/Bowen St,REGIONAL BUS,144.765041,-36.137076
36669,Leichardt St/Bowen St,REGIONAL BUS,144.764983,-36.135624
36670,Echuca East Pre School/Stawell St,REGIONAL BUS,144.763314,-36.134520
36671,Eyre St/Mitchell St,REGIONAL BUS,144.759052,-36.134332
36672,Service St/Mitchell St,REGIONAL BUS,144.759366,-36.136961
36673,Hume St/Leichardt St,REGIONAL BUS,144.756514,-36.136069
36674,Eyre St/Hume St,REGIONAL BUS,144.755974,-36.134355
36675,McKinlay St/Hume St,REGIONAL BUS,144.755591,-36.131410
36676,Pakenham St/Hume St,REGIONAL BUS,144.755180,-36.128274
36677,Moama Bowling Club/Shaw St,REGIONAL BUS,144.758170,-36.114954
36678,Moama Public School/Simms St,REGIONAL BUS,144.762104,-36.114505
36679,Dorward St/Simms St,REGIONAL BUS,144.764828,-36.114817
36680,Murray St/Chanter St,REGIONAL BUS,144.766244,-36.114267
36681,Maidens Inn Holiday Park/Chanter St,REGIONAL BUS,144.773790,-36.115327
36682,Moama Holiday Villas/Chanter St,REGIONAL BUS,144.765254,-36.114302
36683,War St/Chanter St,REGIONAL BUS,144.763006,-36.114062
36684,Echuca St/Francis St,REGIONAL BUS,144.759188,-36.111584
36685,Francis St/Echuca St,REGIONAL BUS,144.760076,-36.110420
36686,Moama Community Centre/Martin St,REGIONAL BUS,144.761179,-36.108764
36687,Martin St/Maiden St,REGIONAL BUS,144.760191,-36.109133
36688,Fire Station/Francis St,REGIONAL BUS,144.757950,-36.109821
36689,Corner Store/Francis St,REGIONAL BUS,144.756764,-36.108159
36690,Martin St/Popplewell St,REGIONAL BUS,144.759376,-36.106522
36691,Olivia Dr/Jacana Ave,REGIONAL BUS,144.759263,-36.103861
36692,Playground/Nile St,REGIONAL BUS,144.756196,-36.100775
36693,Callander Ct/Glencoe Bvd,REGIONAL BUS,144.763940,-36.099919
36694,The Mews/Nicholas Dr,REGIONAL BUS,144.763135,-36.101265
36695,Aberdeen Way/Shetland Dr ,REGIONAL BUS,144.755207,-36.098458
36696,Oban Ct/Aberdeen Way ,REGIONAL BUS,144.754589,-36.096391
36698,Kulgoa Ave/Hillview Ave,REGIONAL BUS,144.756955,-36.102601
36700,JB Hickey Park/Lawson Dr,REGIONAL BUS,144.755159,-36.103261
36701,Carlyon Ct/Lawson Dr,REGIONAL BUS,144.755154,-36.104631
36702,Lawson Dr/Francis St,REGIONAL BUS,144.755439,-36.106692
36703,Ash Ct/Regent St,REGIONAL BUS,144.754216,-36.107922
36704,Maiden St/Meninya St,REGIONAL BUS,144.755072,-36.111795
36705,Blair St/Meninya St,REGIONAL BUS,144.756685,-36.114070
36716,Mill St/McLennan St,REGIONAL BUS,145.361331,-36.394105
36717,Mill St/McLennan St,REGIONAL BUS,145.361120,-36.394571
36719,Barbara Ct/Graeme St,REGIONAL BUS,145.351228,-36.389423
36720,13 Rodney Park Ave,REGIONAL BUS,145.350167,-36.388444
36721,Rodney Park Village/30 Knight St,REGIONAL BUS,145.350357,-36.387365
36722,Jehovahs Witness Kingdom Hall/Knight St,REGIONAL BUS,145.354666,-36.387640
36723,Treacy St/O'Brien St,REGIONAL BUS,145.356196,-36.386454
36724,EDP Australia/O'Brien St,REGIONAL BUS,145.357919,-36.388812
36725,EDP Australia/Anselmi St,REGIONAL BUS,145.357792,-36.389567
36726,36 Northgate St,REGIONAL BUS,145.356979,-36.390566
36727,Alexandra St/Northgate St,REGIONAL BUS,145.357429,-36.392510
36728,Hall St/Toolamba Rd,REGIONAL BUS,145.354425,-36.398030
36730,John St/Daisy St,REGIONAL BUS,145.347906,-36.398869
36731,Albert St/Daisy St,REGIONAL BUS,145.345490,-36.399223
36732,Hall St/William St,REGIONAL BUS,145.343954,-36.398562
36733,32 Emma St,REGIONAL BUS,145.350806,-36.396737
36734,6 Emma St,REGIONAL BUS,145.352897,-36.396432
36735,Rodney Neighbourhood Kindergarten/McLennan St,REGIONAL BUS,145.355035,-36.395001
36736,Grant St/McKean St,REGIONAL BUS,145.358648,-36.387551
36737,Bennett Ct/Anderson St,REGIONAL BUS,145.347687,-36.377069
36743,Friend St/Gange St,REGIONAL BUS,145.345638,-36.376969
36744,Gange St,REGIONAL BUS,145.343899,-36.376990
36745,Maciassic Rd/Gange St,REGIONAL BUS,145.342556,-36.378837
36746,Anderson St/MacIsaac Rd,REGIONAL BUS,145.348794,-36.379032
36747,Echuca Rd/Carr Cres,REGIONAL BUS,145.352947,-36.380847
36748,Ross St/Carr Cres,REGIONAL BUS,145.354619,-36.380347
36749,Carr Cres/Rosalind St,REGIONAL BUS,145.354743,-36.381349
36750,Agnew St/McKean St,REGIONAL BUS,145.357254,-36.384918
36752,Jennings St/Elizabeth St,REGIONAL BUS,145.360166,-36.389032
36753,Mooroopna PS/Ann St,REGIONAL BUS,145.360362,-36.390874
36754,Northgate St/McLennan St,REGIONAL BUS,145.356779,-36.394755
36755,Elizabeth St/McLennan St,REGIONAL BUS,145.365635,-36.391947
36757,Shepparton Bus Interchange/Maude St,REGIONAL BUS,145.400275,-36.383870
36758,Shepparton Bus Interchange/Maude St,REGIONAL BUS,145.400272,-36.384014
36759,Shepparton Bus Interchange/Maude St,REGIONAL BUS,145.400247,-36.384149
36760,Shepparton Bus Interchange/Maude St,REGIONAL BUS,145.400056,-36.384228
36762,Swallow St/Archer St,REGIONAL BUS,145.411582,-36.388672
36765,Hare St/Hayes St,REGIONAL BUS,145.403846,-36.388605
36773,Furphy Ave/Vickers St,REGIONAL BUS,145.384561,-36.418634
36780,Vision Australia/Channel Rd,REGIONAL BUS,145.410547,-36.405038
36781,Hastings Ave/Wimmera Dr,REGIONAL BUS,145.406361,-36.405757
36783,Ashton Rd/Colliver Rd,REGIONAL BUS,145.400726,-36.399399
36784,Wilmot Rd/Sanderson St,REGIONAL BUS,145.400896,-36.397093
36785,Burwood Ave/Sanderson St,REGIONAL BUS,145.401523,-36.394253
36790,Kirsten St/Guthrie St,REGIONAL BUS,145.392547,-36.399668
36792,Wilmot Rd/Community St,REGIONAL BUS,145.397147,-36.397764
36794,South Shepparton Community House/Service St,REGIONAL BUS,145.399130,-36.400026
36803,MacIntosh St/St Georges Rd,REGIONAL BUS,145.405787,-36.392940
36804,St Andrews Rd/St Georges Rd,REGIONAL BUS,145.406097,-36.391376
36805,Guthrie Street Primary School/Abernethy St,REGIONAL BUS,145.391499,-36.397517
36806,St Georges Road Primary School/St Georges Rd,REGIONAL BUS,145.406530,-36.389317
36809,Wilson Park/Callister St,REGIONAL BUS,145.414822,-36.393836
36813,Middlesex Cres/Yorkshire Cres,REGIONAL BUS,145.412361,-36.400789
36814,Hampshire Cres/Westmorland Cres,REGIONAL BUS,145.411470,-36.401877
36820,Davis Ct/Archer St,REGIONAL BUS,145.409836,-36.397213
36821,MacIntosh St/Archer St,REGIONAL BUS,145.410381,-36.394561
36829,Newton St/Cameron Ave,REGIONAL BUS,145.397764,-36.358461
36832,Furze Ave/Newton St,REGIONAL BUS,145.398327,-36.361975
36843,McCormack Ave/Clive St,REGIONAL BUS,145.411412,-36.373472
36852,Goulburn Valley Health/Graham St,REGIONAL BUS,145.404724,-36.362548
36853,Malcolm Cres/Halpin Cres,REGIONAL BUS,145.401378,-36.363215
36855,Newton St/Malcolm Cres,REGIONAL BUS,145.398549,-36.359319
36857,Fraser St/Wyndham St,REGIONAL BUS,145.399726,-36.379662
36865,O'Connell Ct/Olympic Ave,REGIONAL BUS,145.385852,-36.359446
36867,Jones Ct/Olympic Ave,REGIONAL BUS,145.392195,-36.360478
36875,Gowrie St/Regent St,REGIONAL BUS,145.395215,-36.369145
36877,Marnoo St/The Boulevard,REGIONAL BUS,145.393538,-36.369420
36879,Erskine St/Knight St,REGIONAL BUS,145.396399,-36.373371
36884,Caltex Service Station/Waverley Ave,REGIONAL BUS,145.131904,-36.371834
3689,Lauderdale Rd/Princes Hwy,REGIONAL BUS,145.309864,-38.026633
36890,Morgan Cres/Station St,REGIONAL BUS,144.980650,-36.396936
36894,Colbinabbin General Store/Mitchell St,REGIONAL BUS,144.796172,-36.590378
36895,Colbinabbin General Store/Mitchell St,REGIONAL BUS,144.796098,-36.590223
36899,Murphy St/Campbell St,REGIONAL BUS,142.941614,-37.275295
36900,Campbell St/Smith St,REGIONAL BUS,142.943075,-37.274535
36901,Stevens Cres/Smith St,REGIONAL BUS,142.946009,-37.276995
36902,Grano St/Smith St,REGIONAL BUS,142.947272,-37.279083
36903,Ararat Retirement Village/54 McGibbony St,REGIONAL BUS,142.940122,-37.288359
36904,Barkly St/Ingor St,REGIONAL BUS,142.928291,-37.284070
36905,Ararat Hospital/Girdlestone St,REGIONAL BUS,142.932778,-37.279450
3691,Verdun Dr/Princes Hwy,REGIONAL BUS,145.315192,-38.027295
36912,Olivers Gully Reservoir/Tobin St,REGIONAL BUS,142.921787,-37.290719
36914,Webb St/Churchill Ave,REGIONAL BUS,142.922387,-37.293586
36915,41 Churchill Ave ,REGIONAL BUS,142.927113,-37.293974
36916,Churchill Ave/Queen St,REGIONAL BUS,142.932757,-37.293232
36917,Tatyoon Rd/Marx Cres,REGIONAL BUS,142.934587,-37.293367
36918,Centenary Park/Marx Cres,REGIONAL BUS,142.937784,-37.292837
36919,Barkly St/George Rd,REGIONAL BUS,142.920402,-37.285482
36921,McDonald St/George Rd,REGIONAL BUS,142.922231,-37.274781
36922,Evans Park Dr/Lambert St ,REGIONAL BUS,142.918490,-37.265806
36923,Melbourne Polytechnic Ararat/Grano St ,REGIONAL BUS,142.956598,-37.276079
36924,Bendigo Station/Railway Pl,REGIONAL BUS,144.282956,-36.765254
36925,Swan Hill North Primary School/Chapman St,REGIONAL BUS,143.546248,-35.332210
36926,Guardian Ct/Murlong St,REGIONAL BUS,143.543441,-35.344908
36927,Swan Hill Primary School/Yana St,REGIONAL BUS,143.544786,-35.347659
36928,Swan Hill Specialist School/Yana St,REGIONAL BUS,143.544386,-35.350081
36929,Swan Hill College/High St,REGIONAL BUS,143.553914,-35.335286
36930,Cobham Ave/Wattie St,REGIONAL BUS,143.559786,-35.356541
36931,Swan Hill Primary School/Yana St,REGIONAL BUS,143.544399,-35.347198
36932,Swan Hill Hospital/High St,REGIONAL BUS,143.555571,-35.340281
36934,Court House/Curlewis St,REGIONAL BUS,143.561011,-35.339327
36935,Swan Hill Regional Library/Campbell St,REGIONAL BUS,143.558510,-35.335823
36936,Feldtmann Park/Naretha St,REGIONAL BUS,143.560558,-35.334196
36937,Parnee St/Palaroo St,REGIONAL BUS,143.559562,-35.332527
36938,Melis Ct/Adams Rd,REGIONAL BUS,143.558718,-35.329881
36939,Stradbroke Ave/Chapman St,REGIONAL BUS,143.551780,-35.332963
36940,Mundle Ave/Mundara St,REGIONAL BUS,143.550879,-35.330613
36941,Byrnes St/Thurla St,REGIONAL BUS,143.549301,-35.329982
36942,Chapman Street Shops/Chapman St,REGIONAL BUS,143.547315,-35.332448
36943,Comb St/Holloway Gr,REGIONAL BUS,143.542258,-35.332664
36944,McPherson St/Douglas Ave,REGIONAL BUS,143.542287,-35.336630
36945,Murlong St/Bruton Gr,REGIONAL BUS,143.543999,-35.339310
36946,Logan Street Corner Store/Prtichard St,REGIONAL BUS,143.545124,-35.337153
36947,Pye St/Dunstone St,REGIONAL BUS,143.547150,-35.335300
36948,Stradbroke Ave/Pye St,REGIONAL BUS,143.551041,-35.335348
36949,MacKillop College/McCrae St,REGIONAL BUS,143.557535,-35.341166
36950,Campbell St/Rutherford St,REGIONAL BUS,143.560259,-35.342811
36951,Campbell St/McCallum St,REGIONAL BUS,143.560036,-35.338732
36952,McCallum St/Campbell St,REGIONAL BUS,143.559807,-35.339446
36953,Anglican Church/McCallum St,REGIONAL BUS,143.556299,-35.339454
36954,White St/Stradbroke Ave,REGIONAL BUS,143.551183,-35.340795
36955,Rutherford St/Stradbroke Ave,REGIONAL BUS,143.550675,-35.343682
36956,Cedar Ct/Rutherford St,REGIONAL BUS,143.546075,-35.343749
36957,Wanera St/Gray St,REGIONAL BUS,143.547698,-35.346706
36958,30 Burton St,REGIONAL BUS,143.551370,-35.348812
36959,Horse Racing Track/Coronation Ave,REGIONAL BUS,143.554198,-35.350839
36960,Swan Hill Memorial Park Cemetery/Coronation Ave,REGIONAL BUS,143.552878,-35.354199
36961,Gillespie St/Marraboor St,REGIONAL BUS,143.564597,-35.352812
36962,Art Gallery Pioneer Settlement/Marraboor St,REGIONAL BUS,143.564357,-35.349660
36963,Swan Hill Basketball Stadium/Gray St,REGIONAL BUS,143.559460,-35.348160
36964,Coronation Ave/Gray St,REGIONAL BUS,143.555760,-35.347739
36965,Brown Street Shops/Brown St,REGIONAL BUS,143.552538,-35.346691
36966,High St/Rutherford St,REGIONAL BUS,143.556013,-35.343601
36967,Swan Hill Railway Station/Curlewis St,REGIONAL BUS,143.562261,-35.341490
36968,110 Woorinen Rd,REGIONAL BUS,143.530584,-35.334375
36971,Palmer Street/Station St,REGIONAL BUS,143.454289,-35.293347
36974,General Store/Monash Ave,REGIONAL BUS,143.345800,-35.185236
36977,Wood Wood General Store/Murray Valley Hwy,REGIONAL BUS,143.345721,-35.104648
36979,Bridgekeepers Cottage/Murray St,REGIONAL BUS,143.336310,-35.029987
36981,Mildura Baptist Church/Deakin Ave,REGIONAL BUS,142.150552,-34.195375
36982,Burrows St/Deakin Ave,REGIONAL BUS,142.148617,-34.196983
36983,Mildura Senior College/Deakin Ave,REGIONAL BUS,142.146853,-34.198435
36984,Kalimna Dr/Deakin Ave,REGIONAL BUS,142.145032,-34.199957
36985,Acacia Dr/Deakin Ave,REGIONAL BUS,142.141595,-34.202784
36986,The Boulevard/Deakin Ave,REGIONAL BUS,142.139991,-34.204107
36987,Eileen St/Deakin Ave,REGIONAL BUS,142.138020,-34.205758
36988,Mildura Central SC/Fifteenth St,REGIONAL BUS,142.138035,-34.207010
36989,Mildura Central SC/Fifteenth St,REGIONAL BUS,142.138161,-34.206898
36990,San Mateo Ave/Fifteenth St,REGIONAL BUS,142.140685,-34.210124
36991,761 Fifteenth St,REGIONAL BUS,142.143580,-34.212571
36992,Etiwanda Ave/Fifteenth St,REGIONAL BUS,142.147053,-34.215528
36993,Benetook Ave/Fifteenth St,REGIONAL BUS,142.151917,-34.219558
36994,579 Fifteenth St,REGIONAL BUS,142.153966,-34.221260
36995,Irymple Primary School/Fifteenth St,REGIONAL BUS,142.160711,-34.226922
36996,Karadoc Ave/Fifteenth St,REGIONAL BUS,142.166867,-34.232083
36998,Hassell St/Fifteenth St,REGIONAL BUS,142.171877,-34.236262
36999,Myrtle Ct/Fifteenth St,REGIONAL BUS,142.175148,-34.238985
37000,Morpung Ave/Fifteenth St,REGIONAL BUS,142.180384,-34.243380
37001,9298 Ginquam Ave,REGIONAL BUS,142.181204,-34.251428
37002,Mildura Animal Shelter/Calder Hwy,REGIONAL BUS,142.180125,-34.259879
37003,McCracken St/Calder Hwy,REGIONAL BUS,142.182399,-34.265454
37004,Twenty Second St/Calder Hwy,REGIONAL BUS,142.185337,-34.273072
37005,Sunnycliffs Cres/Calder Hwy,REGIONAL BUS,142.186498,-34.280477
37006,8906 Calder Hwy,REGIONAL BUS,142.186499,-34.285016
37008,Calder Hwy,REGIONAL BUS,142.186501,-34.297887
37009,Red Cliffs Police Station/Jacaranda St,REGIONAL BUS,142.186607,-34.303637
37010,Pedler Lane/Heytesbury Ave,REGIONAL BUS,142.187394,-34.304866
37011,Barclay Square Park/Indi Ave,REGIONAL BUS,142.187553,-34.307214
37012,Heytsbury Ave/Jacaranda St,REGIONAL BUS,142.186455,-34.304388
37013,8760 Calder Hwy,REGIONAL BUS,142.186317,-34.298843
37014,Sunnycliffs Cres/Calder Hwy,REGIONAL BUS,142.186297,-34.286854
37015,Sunnycliffs Cr,REGIONAL BUS,142.186263,-34.280044
37016,9068 Calder Hwy,REGIONAL BUS,142.184154,-34.270423
37017,McCracken St/Calder Hwy,REGIONAL BUS,142.181629,-34.264307
37018,Mildura Animal Shelter/Calder Hwy,REGIONAL BUS,142.179905,-34.259933
37019,Belar Ave/Calder Hwy,REGIONAL BUS,142.181276,-34.251125
37020,Morpung Ave/Fifteenth St,REGIONAL BUS,142.179965,-34.243318
37021,Irymple Ave/Fifteenth St,REGIONAL BUS,142.175307,-34.239424
37022,Koorlong Ave/Fifteenth St,REGIONAL BUS,142.170845,-34.235717
37023,Irymple Public Library/Fifteenth St,REGIONAL BUS,142.168527,-34.233779
37024,Karadoc Ave/Fifteenth St,REGIONAL BUS,142.166301,-34.231926
37025,Irymple PS/Fifteenth St,REGIONAL BUS,142.160030,-34.226697
37026,Cowra Ave/Fifteenth St,REGIONAL BUS,142.155374,-34.222793
37027,Opp 599 Fifteenth St,REGIONAL BUS,142.152912,-34.220741
37028,818 Fifteenth St,REGIONAL BUS,142.143570,-34.212940
37029,San Mateo Ave/Fifteenth St,REGIONAL BUS,142.140694,-34.210547
37030,Plantation St/Deakin Ave,REGIONAL BUS,142.138105,-34.205050
37031,Muscat Ct/Deakin Ave,REGIONAL BUS,142.139516,-34.203890
37032,Rambling Way/Deakin Ave,REGIONAL BUS,142.141518,-34.202249
37033,Aldinga Dr/Deakin Ave,REGIONAL BUS,142.143112,-34.200916
37034,Mildura Senior College/Deakin Ave,REGIONAL BUS,142.145991,-34.198545
37035,Chaffey Sec Col/Deakin Ave,REGIONAL BUS,142.149050,-34.196045
37036,Princess St/Deakin Ave,REGIONAL BUS,142.151212,-34.194257
37037,Henderson Park/Deakin Ave,REGIONAL BUS,142.154432,-34.191593
37038,St Andrews Uniting Church/Deakin Ave,REGIONAL BUS,142.156720,-34.189684
37039,Ninth St/Deakin Ave,REGIONAL BUS,142.159880,-34.187116
37040,Eighth St/Deakin Ave,REGIONAL BUS,142.162772,-34.184690
37041,Eighth St/Deakin Ave,REGIONAL BUS,142.163121,-34.185028
37042,Lime Ave/Eighth St,REGIONAL BUS,142.160363,-34.183046
37043,Ninth St/Deakin Ave,REGIONAL BUS,142.160350,-34.187233
37044,Eleventh St/Deakin Ave,REGIONAL BUS,142.158302,-34.188945
37045,Mildura Library/Deakin Ave,REGIONAL BUS,142.156263,-34.190665
37046,Thirteenth St/Deakin Ave,REGIONAL BUS,142.153681,-34.192788
37047,Hunter St/Deakin Ave,REGIONAL BUS,142.152044,-34.194110
37048,Risbey Lane/Eleventh St,REGIONAL BUS,142.158948,-34.190709
37049,Lemon Ave/Eleventh St,REGIONAL BUS,142.160779,-34.192240
37050,South Mildura Football Club/Eleventh St,REGIONAL BUS,142.163395,-34.194451
37051,Mildura Harness Racing Track/Eleventh St,REGIONAL BUS,142.164772,-34.195586
37052,Cleary Ave/Eleventh,REGIONAL BUS,142.169540,-34.199584
37053,Kepito Ct/Eleventh St,REGIONAL BUS,142.171527,-34.201230
37055,Black Pl/Benetook Ave,REGIONAL BUS,142.174072,-34.200133
37056,Paul Pl/Ellswood Cres,REGIONAL BUS,142.177789,-34.199577
37057,Ellswood Cres/Cureton Ave,REGIONAL BUS,142.186222,-34.196738
37058,Cureton Ave/Benetook Ave,REGIONAL BUS,142.183630,-34.195051
37059,Dolfin Dr/Benetook Ave,REGIONAL BUS,142.180994,-34.195470
37061,Ellswood Cres/Benetook Ave,REGIONAL BUS,142.174672,-34.199877
37062,Eleventh St,REGIONAL BUS,142.172920,-34.201321
37063,Benetook Ave/Eleventh St,REGIONAL BUS,142.171439,-34.201443
37064,Cleary Ave/Eleventh,REGIONAL BUS,142.169691,-34.199978
37069,Mildura Recreation Reserve/Etiwanda Ave,REGIONAL BUS,142.166626,-34.198416
37071,Sunnyside Ave/Thirteenth St,REGIONAL BUS,142.161000,-34.198608
37084,Avocado St/Etiwanda St,REGIONAL BUS,142.161293,-34.202762
37085,Lisa Ct/Etiwanda Ave,REGIONAL BUS,142.160019,-34.203802
37086,Weir Cres/Etiwanda Ave,REGIONAL BUS,142.158517,-34.205057
37087,Fourteenth St/Etiwanda St,REGIONAL BUS,142.157425,-34.205942
37088,St Pauls PS/Fourteenth St,REGIONAL BUS,142.154468,-34.204573
37089,Lower Murray Water/Fourteenth St,REGIONAL BUS,142.152326,-34.202795
3709,Whiteside Rd/Princes Hwy,REGIONAL BUS,145.389887,-38.056270
37090,Noyce Ct/San Mateo Ave,REGIONAL BUS,142.150881,-34.203242
37091,McKay Pl/San Mateo Ave,REGIONAL BUS,142.148650,-34.205090
37092,Matthew Flinders Dr/San Mateo Ave,REGIONAL BUS,142.145486,-34.207702
37093,San Mateo Ave/Batey Cres,REGIONAL BUS,142.144689,-34.209121
37094,Batey Cres/Maloney Dr,REGIONAL BUS,142.145684,-34.211430
37095,Etiwanda Dr/Maloney Dr,REGIONAL BUS,142.147701,-34.213122
37096,Maloney Dr/Etiwanda Ave,REGIONAL BUS,142.147474,-34.214239
3710,Bayview Rd/Princes Hwy,REGIONAL BUS,145.405666,-38.059207
3711,Tivendale Rd/Princes Hwy,REGIONAL BUS,145.409208,-38.059876
37110,Marsden Dr/Fifteenth St,REGIONAL BUS,142.134503,-34.205285
37111,Brooks Dr/Fifteenth St,REGIONAL BUS,142.133387,-34.204340
37112,Walnut Ave/Fifteenth St,REGIONAL BUS,142.131793,-34.203015
37113,Admiral Ct/Walnut Ave,REGIONAL BUS,142.130013,-34.203818
37114,Woodley Park/Woodley Dr,REGIONAL BUS,142.127178,-34.203723
37115,Greenvale Pde/Panorama Dr,REGIONAL BUS,142.126826,-34.200989
37116,Panorama Dr/Fifteenth St,REGIONAL BUS,142.127000,-34.199303
37117,Fifteenth,REGIONAL BUS,142.126921,-34.198039
37118,Sterling Dr/Ontario Ave,REGIONAL BUS,142.128535,-34.196743
37119,Colonial Dr/Ontario Ave,REGIONAL BUS,142.130106,-34.195428
3712,Officer Recreation Reserve/Princes Hwy,REGIONAL BUS,145.415644,-38.061117
37120,Ontario Ave/Colonial Dr,REGIONAL BUS,142.130997,-34.195400
37121,Upland Dr/Centennial Dr,REGIONAL BUS,142.133909,-34.196768
37122,Upland Dr/Walnut Ave,REGIONAL BUS,142.135363,-34.199194
37123,Patricia Dr/Walnut Ave,REGIONAL BUS,142.137264,-34.197622
37124,Eulinga Dr/Walnut Ave,REGIONAL BUS,142.140780,-34.194726
37125,Beasy Ct/Fourteenth St,REGIONAL BUS,142.138983,-34.191665
37126,Sebastian Ct/Cavallo Dr,REGIONAL BUS,142.135779,-34.191781
37127,Wilson Ct/Lilley Dr,REGIONAL BUS,142.137535,-34.192157
37128,Richardson Gr/Walnut Ave,REGIONAL BUS,142.142702,-34.193145
37129,S C Mills Park/Walnut Ave,REGIONAL BUS,142.145240,-34.191039
3713,McMullen Rd/Princes Hwy,REGIONAL BUS,145.419255,-38.062265
37130,Bowen Cres/Walnut Ave,REGIONAL BUS,142.147779,-34.188924
37131,Walnut Ave/Thirteenth St,REGIONAL BUS,142.148113,-34.187821
37133,Healthscope Ct/Ontario Ave,REGIONAL BUS,142.144593,-34.183448
37134,Heley Ct/Ontario Ave,REGIONAL BUS,142.145970,-34.182296
37135,Eleventh St/Ontario Ave,REGIONAL BUS,142.147039,-34.181420
37136,Tenth St/Ontario Ave,REGIONAL BUS,142.148507,-34.180199
37137,Mildura West PS/Ontario Ave,REGIONAL BUS,142.150167,-34.178842
37138,Wilga Ave/Ninth St,REGIONAL BUS,142.149972,-34.177519
37139,Jude Ave/Ninth St,REGIONAL BUS,142.148763,-34.176498
37140,Riverside Ave/Ninth St,REGIONAL BUS,142.146757,-34.174824
37141,Riverside Ave/Eighth St,REGIONAL BUS,142.148397,-34.173043
37142,Jude,REGIONAL BUS,142.150673,-34.174935
37143,Ontario,REGIONAL BUS,142.152306,-34.176314
37144,Mildura Croquet Club/Eighth St,REGIONAL BUS,142.153784,-34.177562
37145,Chaffey Ave/Eighth St,REGIONAL BUS,142.157054,-34.180267
37150,Cherry Ave/Eighth St,REGIONAL BUS,142.156027,-34.179650
37151,Mildura Croquet Club/Eighth St,REGIONAL BUS,142.153732,-34.177713
37152,Ontario,REGIONAL BUS,142.152212,-34.176437
37153,Jude,REGIONAL BUS,142.150505,-34.175036
37154,Riverside,REGIONAL BUS,142.148158,-34.173061
37159,Tenth St/Ontario Ave,REGIONAL BUS,142.148710,-34.180252
3716,Purton Rd/Princes Hwy,REGIONAL BUS,145.463323,-38.063823
37160,Eleventh St/Ontario Ave,REGIONAL BUS,142.147163,-34.181533
37161,Twelfth St/Ontario Ave,REGIONAL BUS,142.145933,-34.182556
37162,Healthscope Ct/Ontario Ave,REGIONAL BUS,142.144386,-34.183836
37173,Sterling Dr/Ontario Ave,REGIONAL BUS,142.128479,-34.196948
37174,Fifteenth,REGIONAL BUS,142.127079,-34.198117
37175,Panorama Dr/Fifteenth St,REGIONAL BUS,142.127563,-34.199308
37179,Walnut Ave/Fifteenth St,REGIONAL BUS,142.131856,-34.202874
37180,Brooks Dr/Fifteenth St,REGIONAL BUS,142.133479,-34.204244
37181,Marsden Dr/Fifteenth St,REGIONAL BUS,142.134917,-34.205436
37182,Jehovahs Witness Church/Fifteenth St,REGIONAL BUS,142.130521,-34.201956
37183,Walnut Av/Fifteenth St,REGIONAL BUS,142.130976,-34.202154
37184,289 Eighth St,REGIONAL BUS,142.147005,-34.172385
37185,Mildura Gardens Retirement Village/Eighth St,REGIONAL BUS,142.144565,-34.170333
37187,Flora,REGIONAL BUS,142.138873,-34.165298
37188,54 Flora Ave,REGIONAL BUS,142.136154,-34.166226
37189,Grandview,REGIONAL BUS,142.134243,-34.167807
3719,Lyle Blue Ct/Princes Hwy,REGIONAL BUS,145.477135,-38.071149
37190,Flora Av/Eleventh St,REGIONAL BUS,142.133354,-34.169330
37191,Old Aerodrome Sporting Complex/Eleventh St,REGIONAL BUS,142.136007,-34.171624
37192,Old Aerodrome Tennis Courts/Eleventh St,REGIONAL BUS,142.138094,-34.173382
37193,Alm Ct/Eleventh St,REGIONAL BUS,142.141744,-34.176436
37194,Symonds Ct/Eleventh St,REGIONAL BUS,142.144955,-34.179031
37195,Ontario Ave/Eleventh St,REGIONAL BUS,142.146763,-34.180571
37196,Cavallo Dr/Ontario Ave,REGIONAL BUS,142.134909,-34.191638
37197,Ranfurly PS/Ontario Ave,REGIONAL BUS,142.132791,-34.193409
37198,Endeavour Ct/Ontario Ave,REGIONAL BUS,142.131460,-34.194500
37199,The Grange/San Mateo Ave,REGIONAL BUS,142.137793,-34.213846
3720,Deveney St/Princes Hwy,REGIONAL BUS,145.481597,-38.071468
37200,Olivewood Ave/San Mateo Ave,REGIONAL BUS,142.139717,-34.212265
37201,Olivewood Dr/San Mateo Ave,REGIONAL BUS,142.139842,-34.212342
37202,The Vines Retirement Village/San Mateo Ave,REGIONAL BUS,142.137988,-34.213862
37203,Mirage Dr/San Mateo Ave,REGIONAL BUS,142.134479,-34.216803
37204,James Cook Dr/San Mateo Ave,REGIONAL BUS,142.133616,-34.217480
37205,Arizona Ct/San Mateo Ave,REGIONAL BUS,142.131740,-34.218991
37206,Leichhardt Dr/Sixteenth St,REGIONAL BUS,142.129754,-34.218642
37207,Deakin,REGIONAL BUS,142.126382,-34.215833
37208,Deakin,REGIONAL BUS,142.125037,-34.214716
37210,Walnut Ave/Sixteenth St,REGIONAL BUS,142.121345,-34.211633
37211,Panorama,REGIONAL BUS,142.123265,-34.209170
37213,Dunning Dr/Walnut Ave,REGIONAL BUS,142.127238,-34.205887
37214,Renee Ct/Dunning Dr,REGIONAL BUS,142.126460,-34.204902
37215,Woodley Dr/Dunning Dr,REGIONAL BUS,142.126027,-34.203389
37216,Panorama Dr/Holyoake Way,REGIONAL BUS,142.124184,-34.202442
37217,Fush Pl/Ontario Ave,REGIONAL BUS,142.123630,-34.200772
37218,Kyamber Ct/Westside Bvd,REGIONAL BUS,142.123007,-34.198054
37219,Westside Bvd/Fifteenth St,REGIONAL BUS,142.124772,-34.196954
3722,Racecourse Rd Nth/Racecourse Rd,REGIONAL BUS,145.493718,-38.071363
37220,Ontario Ave/Fifteenth St,REGIONAL BUS,142.126095,-34.198078
37221,Endeavour Ct/Ontario Ave,REGIONAL BUS,142.131335,-34.194414
37223,Cavallo Dr/Ontario Ave,REGIONAL BUS,142.134966,-34.191406
37224,Ontario Ave/Eleventh St,REGIONAL BUS,142.146462,-34.180514
37225,Raymond Ct/Eleventh St,REGIONAL BUS,142.144840,-34.179144
37226,St Josephs College Stadium/Eleventh St,REGIONAL BUS,142.141620,-34.176530
37227,Old Aerodrome Tennis Courts/Eleventh St,REGIONAL BUS,142.137574,-34.173199
37228,Old Aerodrome Sporting Complex/Eleventh St,REGIONAL BUS,142.135892,-34.171727
37229,Flora,REGIONAL BUS,142.133239,-34.169433
3723,Cameron Way/Racecourse Rd,REGIONAL BUS,145.493544,-38.077065
37230,Grandview,REGIONAL BUS,142.134278,-34.167583
37231,43 Flora Ave,REGIONAL BUS,142.136097,-34.166097
37232,Flora,REGIONAL BUS,142.138942,-34.165229
37233,Dyar,REGIONAL BUS,142.142920,-34.168800
37234,Etherington,REGIONAL BUS,142.144646,-34.170246
37235,Riverside Av/Eighth St,REGIONAL BUS,142.147096,-34.172307
37236,Charles Ct/Tenth St,REGIONAL BUS,142.148579,-34.179319
37237,Ranfurly Ct/Tenth St,REGIONAL BUS,142.147111,-34.178081
37238,Riverside Ave/Tenth St,REGIONAL BUS,142.145053,-34.176378
37239,Eleventh St/Riverside Ave,REGIONAL BUS,142.143455,-34.176468
37240,Eleventh St/Riverside Ave,REGIONAL BUS,142.143261,-34.176433
37241,Riverside Ave/Tenth St,REGIONAL BUS,142.145126,-34.176237
37242,Ranfurly Ct/Tenth St,REGIONAL BUS,142.147215,-34.177968
37243,Charles Ct/Tenth St,REGIONAL BUS,142.148663,-34.179187
37244,Rowse Ct/Flora Ave,REGIONAL BUS,142.131433,-34.170136
37245,Rowse Ct,REGIONAL BUS,142.129534,-34.171691
37246,Hood Ct/Flora Ave,REGIONAL BUS,142.125585,-34.174965
37247,Ranfurly Way,REGIONAL BUS,142.113166,-34.176478
37248,145 Ranfurly Way,REGIONAL BUS,142.109050,-34.177557
37249,199 Ranfurly Way,REGIONAL BUS,142.103084,-34.177300
37250,River Ave/Reilly St,REGIONAL BUS,142.076522,-34.170993
37251,Game St/Reilly St,REGIONAL BUS,142.074350,-34.169402
37252,Merbein P-10 College/Commercial St,REGIONAL BUS,142.071188,-34.169194
37253,Mead St/Commercial St,REGIONAL BUS,142.068434,-34.168470
37254,Foster St/Commercial St,REGIONAL BUS,142.065992,-34.167994
37255,O'Bryan St/Commercial St,REGIONAL BUS,142.063586,-34.167996
37256,Merbein Post Office/Railway Ave,REGIONAL BUS,142.060758,-34.168377
37257,Obryan St/Commercial St,REGIONAL BUS,142.063746,-34.167858
37258,Foster St/Commercial St,REGIONAL BUS,142.066141,-34.167855
37259,Mead St/Commercial St,REGIONAL BUS,142.068518,-34.168339
37260,Merbein P-10 College/Commercial St,REGIONAL BUS,142.071273,-34.169026
37261,Chaffey St/Commercial St,REGIONAL BUS,142.072811,-34.168673
37262,Cameron St/Reilly St,REGIONAL BUS,142.075524,-34.169899
37263,Cameron St,REGIONAL BUS,142.076503,-34.170767
37264,207 Ranfurly Way,REGIONAL BUS,142.102738,-34.176908
37265,131 Ranfurly Way,REGIONAL BUS,142.108918,-34.177417
37266,Ranfurly Bend Park/Ranfurly Way,REGIONAL BUS,142.113065,-34.176339
37267,197 Flora Ave,REGIONAL BUS,142.125303,-34.174963
37268,Hood Ct/Flora Ave,REGIONAL BUS,142.126872,-34.173683
37269,Rowse Ct/Flora Ave,REGIONAL BUS,142.129387,-34.171604
37270,Rowse Ct Nth/Flora Ave,REGIONAL BUS,142.131287,-34.170040
37283,Sixteenth St/Deakin Ave,REGIONAL BUS,142.125468,-34.215706
37286,Between 16th and 17 St/Deakin Ave,REGIONAL BUS,142.120686,-34.219649
37287,Seventeenth St/Deakin Ave,REGIONAL BUS,142.116197,-34.223406
37288,Walnut Ave/Seventeenth St,REGIONAL BUS,142.110076,-34.219586
37289,Ontario Ave/Seventeenth St,REGIONAL BUS,142.105164,-34.215472
37290,Between Ontario & Riverside Ave/Seventeenth St,REGIONAL BUS,142.103003,-34.213665
37291,Riverside Ave/Seventeenth St,REGIONAL BUS,142.100004,-34.211167
37292,The Lake PS/Seventeenth St,REGIONAL BUS,142.092974,-34.205284
37293,Flora Ave/Seventeenth St,REGIONAL BUS,142.090556,-34.203241
37294,Regina Ave/Calder Hwy,REGIONAL BUS,142.085636,-34.199126
37295,Dickies Rd/Mena Rd,REGIONAL BUS,142.076750,-34.195743
37296,111 Mena Rd,REGIONAL BUS,142.068337,-34.196701
37297,River Ave/Mena Rd,REGIONAL BUS,142.059645,-34.196693
37298,Sixth St/Calder Hwy,REGIONAL BUS,142.058471,-34.192295
37299,201 Main Ave,REGIONAL BUS,142.058479,-34.187342
37300,Fifth St/Calder Hwy,REGIONAL BUS,142.058482,-34.180993
37301,Fourth St/Calder Hwy,REGIONAL BUS,142.058501,-34.175293
37302,Fourth St/Calder Hwy,REGIONAL BUS,142.058659,-34.176101
37303,Fifth St/Main Av Sth,REGIONAL BUS,142.058648,-34.182035
37304,Sixth St/Calder Hwy,REGIONAL BUS,142.058649,-34.193149
37305,River Ave/Mena Rd,REGIONAL BUS,142.061431,-34.196540
37306,112 Mena Rd,REGIONAL BUS,142.068477,-34.196536
37307,Dickies Rd/Mena Rd,REGIONAL BUS,142.076649,-34.195613
37308,Regina Ave/Calder Hwy,REGIONAL BUS,142.086537,-34.199658
37310,The Lake PS/478 Seventeenth St,REGIONAL BUS,142.093255,-34.205295
37311,Riverside Ave/Seventeenth St,REGIONAL BUS,142.101142,-34.211925
37312,451 Seventeenth St,REGIONAL BUS,142.103221,-34.213647
37313,Ontario Ave/Seventeenth St,REGIONAL BUS,142.106209,-34.216144
37314,Walnut Ave/Seventeenth St,REGIONAL BUS,142.111060,-34.220193
37315,Seventeenth St/Deakin Ave,REGIONAL BUS,142.116274,-34.223022
37316,Between 16th and 17th St/Deakin Ave,REGIONAL BUS,142.120757,-34.219364
37331,Cobram Post Office/High St,REGIONAL BUS,145.649159,-35.920295
37338,Ottrey Lodge/Campbell Rd,REGIONAL BUS,145.659921,-35.919667
37346,The Border Mail Offices/McKoy St,REGIONAL BUS,146.861233,-36.112118
37347,Wodonga TAFE/87 McKoy St,REGIONAL BUS,146.855416,-36.109560
37348,La Trobe University/University Dr,REGIONAL BUS,146.851315,-36.109825
37350,Buckland Ct/Mayfair Dr,REGIONAL BUS,146.857139,-36.114935
37351,Aberdeen Dr/Mayfair Dr,REGIONAL BUS,146.861891,-36.117222
37352,Mayfair Dr/Lawrence St,REGIONAL BUS,146.863818,-36.121001
37353,Opal Ct/Melrose Dr,REGIONAL BUS,146.867003,-36.123728
37354,Birallee Shopping Centre/101 Melrose Dr,REGIONAL BUS,146.864263,-36.127214
37357,Kelly Park/Lawrence` St,REGIONAL BUS,146.870384,-36.121973
37358,Wodonga West Primary School/Lawrence St,REGIONAL BUS,146.878472,-36.123127
37359,Smythe St/Lawrence St,REGIONAL BUS,146.883705,-36.123862
37360,Centro Wodonga/Smythe St,REGIONAL BUS,146.883688,-36.120148
37361,Water Tower Park/High St,REGIONAL BUS,146.888228,-36.123371
37362,Wodonga Library/Hovell St,REGIONAL BUS,146.888572,-36.123858
37363,Doctors Surgery/Beechworth Rd,REGIONAL BUS,146.887933,-36.127680
37364,Family Vet Centre/Beechworth Rd,REGIONAL BUS,146.887295,-36.130790
37365,William St/Wilson St,REGIONAL BUS,146.882228,-36.130785
37366,Wodonga Regional Health/Wilson St,REGIONAL BUS,146.879039,-36.130322
37367,St Monicas Catholic School/Brockley St,REGIONAL BUS,146.872965,-36.126592
37368,McFarland Rd/Trudewind Rd,REGIONAL BUS,146.866535,-36.130696
37369,Harris Ct/Mcfarland Rd,REGIONAL BUS,146.868445,-36.131447
37370,Flower Pl/Mcfarland Rd,REGIONAL BUS,146.870820,-36.133505
37371,Park View Cl/Melrose Dr,REGIONAL BUS,146.865167,-36.131380
37372,Wodonga Middle Years College/Emerald Ave,REGIONAL BUS,146.861721,-36.125182
37373,Birallee Park/Emerald Ave,REGIONAL BUS,146.858410,-36.125305
37375,Emerald Ave/Marshall St,REGIONAL BUS,146.855296,-36.126130
37376,Gayview Dr/Marshall St,REGIONAL BUS,146.851787,-36.125035
37377,Gayview Shops/Gayview Dr,REGIONAL BUS,146.854513,-36.122983
37378,Lawrence St/Gayview Dr,REGIONAL BUS,146.856418,-36.120452
37379,Wodonga Sports Park/Melrose Dr,REGIONAL BUS,146.867865,-36.119590
37380,Chifley St/Felltimber Creek Rd,REGIONAL BUS,146.861003,-36.135495
37381,Griffith St/Beechworth Rd,REGIONAL BUS,146.886635,-36.133954
37382,Athol St/Beechworth Rd,REGIONAL BUS,146.886232,-36.136009
37383,Beech St/Pearce,REGIONAL BUS,146.884451,-36.138000
37384,Wodonga South Primary School/Pearce St,REGIONAL BUS,146.881417,-36.137600
37385,Jarrah St/Pearce St,REGIONAL BUS,146.879928,-36.137400
37386,Murray Valley Private Hospital/Nordsvan Dr,REGIONAL BUS,146.876158,-36.138884
37388,Hartwig Rd/Pearce,REGIONAL BUS,146.867301,-36.138045
37389,Federation Bottle Shop/Felltimber Creek Rd,REGIONAL BUS,146.856204,-36.134210
37391,Stevenson St/Marshall St,REGIONAL BUS,146.855599,-36.130927
37392,BMX Track/Silva Dr,REGIONAL BUS,146.857203,-36.128910
37393,Flying Fruit Fly School/Silva Dr,REGIONAL BUS,146.860114,-36.129111
37394,Melrose Primary School/Silva Dr,REGIONAL BUS,146.861923,-36.130583
37395,Ritter Rd/Silva Dr,REGIONAL BUS,146.863021,-36.131783
37396,Hartwig Rd/Pearce,REGIONAL BUS,146.867279,-36.137883
37398,Lawry St/Pearce St,REGIONAL BUS,146.880840,-36.137311
37399,Beech St/Pearce,REGIONAL BUS,146.884507,-36.137801
37400,Elm St/Beechworth Rd,REGIONAL BUS,146.885632,-36.136162
37401,Griffith St/Beechworth Rd,REGIONAL BUS,146.886057,-36.134070
37402,Wilson St/Beechworth Rd,REGIONAL BUS,146.886550,-36.131619
37403,Brockley St/Beechworth Rd,REGIONAL BUS,146.887154,-36.128716
37404,Wodonga Uniting Church/Beechworth Rd,REGIONAL BUS,146.887780,-36.125805
37405,Jack In The Box Creek/Lawrence St,REGIONAL BUS,146.900060,-36.125978
37406,Oslo Ct/London Rd,REGIONAL BUS,146.901257,-36.128485
37407,Graeme Sutherland Park/Chapple St,REGIONAL BUS,146.905236,-36.128542
37408,Huons Hills Rd/Chapple St,REGIONAL BUS,146.905323,-36.129967
37409,Spring Ave/Chapple St,REGIONAL BUS,146.904686,-36.133095
37410,Bunnings/Thomas Mitchell Dr,REGIONAL BUS,146.901996,-36.133021
37411,Blueys Bait and Tackle/Thomas Mitchell Dr,REGIONAL BUS,146.898065,-36.130682
37412,Lange St/Thomas Mitchell Dr,REGIONAL BUS,146.893178,-36.127901
37413,Brockley St/Gordon St,REGIONAL BUS,146.884309,-36.128858
37414,Bassett St/Gordon St,REGIONAL BUS,146.883995,-36.130399
37415,Chenery St/Gordon St,REGIONAL BUS,146.883547,-36.132562
37416,Elm St/Gordon St,REGIONAL BUS,146.882898,-36.135744
37417,Emerald Ave/Lawrence St,REGIONAL BUS,146.865006,-36.121381
37418,Serpentine Ave/Lawrence St,REGIONAL BUS,146.859729,-36.120672
37420,Baranduda CFA/Wodonga - Yackandanda Rd,REGIONAL BUS,146.954344,-36.188724
37421,Baranduda Bvd,REGIONAL BUS,146.949186,-36.185512
37422,Paterson Ave/Baranduda Bvd,REGIONAL BUS,146.946441,-36.182563
37423,Sanctuary Park Motel/High St,REGIONAL BUS,146.892720,-36.113584
37424,St. Ives Hotel,REGIONAL BUS,146.901899,-36.095181
37425,Ebden St/Wodonga Pl,REGIONAL BUS,146.908805,-36.088831
37426,Country Comfort Motel/Dean St,REGIONAL BUS,146.912546,-36.080241
37427,QEII Square/Dean St,REGIONAL BUS,146.916011,-36.080803
37428,QEII Square/Dean St,REGIONAL BUS,146.917011,-36.080777
37429,Drummond Golf/Dean St,REGIONAL BUS,146.912668,-36.080440
37430,K-Mart Car Park/Smollett St,REGIONAL BUS,146.913155,-36.082424
37431,Snow White Depot/David St,REGIONAL BUS,146.920596,-36.082582
37432,Dean St/David St,REGIONAL BUS,146.920586,-36.081581
37433,Albury Shopping Centre/Townsend St,REGIONAL BUS,146.912922,-36.082063
37441,Waratah Cres/Jacaranda St,REGIONAL BUS,146.894908,-36.072789
37442,Hakea Pl/Kurrajong Cres,REGIONAL BUS,146.896464,-36.071438
37443,Hibiscus Cres/Kurrajong Cres,REGIONAL BUS,146.897144,-36.069527
37444,Banksia St/Jacaranda St,REGIONAL BUS,146.895145,-36.069733
37445,Banksia St/Warrenlee Dr,REGIONAL BUS,146.890714,-36.069846
37446,Football Park/Glendale Ave,REGIONAL BUS,146.890799,-36.072362
37447,Sunset Dr/Pemberton St,REGIONAL BUS,146.889843,-36.073407
37448,Yallaroo Aged Care/Somerset Dr,REGIONAL BUS,146.884967,-36.073474
37449,Albury Wodonga Private Hospital/Pemberton St,REGIONAL BUS,146.882788,-36.075005
37450,West Albury Health Centre/Padman Dr,REGIONAL BUS,146.883497,-36.076746
37451,Riverwood Village/Padman Dr,REGIONAL BUS,146.890168,-36.079421
37452,Solomon St/Padman Dr,REGIONAL BUS,146.895165,-36.080119
37453,Albury West Public School/Mott St,REGIONAL BUS,146.896446,-36.077127
37454,Miller St/Mott St,REGIONAL BUS,146.896815,-36.075279
37455,Playground/Pemberton St,REGIONAL BUS,146.903270,-36.073247
37456,Small St/Pemberton St,REGIONAL BUS,146.906266,-36.075062
37457,Old Ampol Service Station/Pemberton St,REGIONAL BUS,146.908585,-36.076858
37458,Hovell St/Macauly St,REGIONAL BUS,146.920980,-36.088037
37460,Bridge St/Macauly St,REGIONAL BUS,146.920455,-36.090822
37461,Macauly St/Atkins St,REGIONAL BUS,146.919352,-36.093707
37462,Olive St/Atkins St,REGIONAL BUS,146.916164,-36.093317
37463,Panmure St/Olive St,REGIONAL BUS,146.915562,-36.095507
37464,Plummer St/Abercorn St,REGIONAL BUS,146.913994,-36.096913
37465,Panmure St/Kiewa St,REGIONAL BUS,146.912975,-36.094568
37466,Telstra/Kiewa St,REGIONAL BUS,146.913913,-36.089565
37469,Dean St/David St,REGIONAL BUS,146.920765,-36.080671
37479,Downside St/Electra St,REGIONAL BUS,146.931671,-36.081787
37480,Chambers Ave/Electra St,REGIONAL BUS,146.932340,-36.078108
37481,Whinray Cres/Peechelba St,REGIONAL BUS,146.934162,-36.077668
37482,Albury Base Hospital/Keene St,REGIONAL BUS,146.936250,-36.077218
37483,Alexandra Park/Keene St,REGIONAL BUS,146.936741,-36.074559
37484,Bicycle Education Centre/Andrews St,REGIONAL BUS,146.938731,-36.071584
37485,Alexandra St/East St,REGIONAL BUS,146.940940,-36.073136
37486,Cadell St/East St,REGIONAL BUS,146.940572,-36.075056
37487,Albury Base Hospital/East St,REGIONAL BUS,146.940093,-36.077923
37488,Playground/Mountford Cres,REGIONAL BUS,146.943634,-36.080179
37489,Murray Garden Retirement Estate/Mountford Cres,REGIONAL BUS,146.943588,-36.082271
37490,Grandview Tce/Mountford Cres,REGIONAL BUS,146.942809,-36.083983
37495,Baker Hyundai/High St,REGIONAL BUS,146.891662,-36.115494
37496,Red Rooster/High St,REGIONAL BUS,146.890370,-36.117278
37497,Mann Centre/High St ,REGIONAL BUS,146.888522,-36.119900
37498,Continuing Education Centre/High St,REGIONAL BUS,146.889414,-36.118233
37499,Warrina Motor Inn/High St,REGIONAL BUS,146.891585,-36.115179
37500,Australia Park Motel/Wodonga Pl,REGIONAL BUS,146.909228,-36.087929
37501,Provincial Business Centre/High St,REGIONAL BUS,146.893488,-36.112439
37505,Tallangatta Information Centre/Towong St,REGIONAL BUS,147.177647,-36.216793
37508,Tangambalanga General Store/Kiewa East Rd,REGIONAL BUS,147.030477,-36.252424
37515,Royal Hotel/River St,REGIONAL BUS,146.391554,-35.998768
37517,Sir Isaac Isaacs Park/Isaacs Ave,REGIONAL BUS,146.845244,-36.309892
37518,Post Office/High St,REGIONAL BUS,146.837976,-36.312767
37521,Ford St/Camp St,REGIONAL BUS,146.686794,-36.359148
37523,Wangaratta Railway Station/Norton St,REGIONAL BUS,146.316728,-36.356163
37524,Department Human Services/Rowan St,REGIONAL BUS,146.321662,-36.352729
37525,Gray St/Rowan St,REGIONAL BUS,146.316956,-36.351729
37526,North East Health Wangaratta/Green St,REGIONAL BUS,146.314396,-36.355230
37527,Docker St/Green St,REGIONAL BUS,146.314918,-36.352907
37528,Dorevitch Pathology/Green St,REGIONAL BUS,146.315297,-36.351584
37529,Templeton St/Green St,REGIONAL BUS,146.315780,-36.349910
37530,Showgrounds/Green St,REGIONAL BUS,146.316038,-36.348415
37531,Rovers Football Club/Evans St,REGIONAL BUS,146.314327,-36.347864
37532,Rowan St/Swan St,REGIONAL BUS,146.310919,-36.350089
37533,Docker St/Swan St,REGIONAL BUS,146.310433,-36.352187
37534,Rotary Park/Swan St,REGIONAL BUS,146.311674,-36.346686
37536,Larkings St/Swan St,REGIONAL BUS,146.309666,-36.355708
37537,Coronation Kindergarten/Swan St,REGIONAL BUS,146.309329,-36.357274
37539,Floyd Ave/Medowra Ave,REGIONAL BUS,146.307340,-36.357858
37540,Nolan St/Medowra Ave,REGIONAL BUS,146.305603,-36.357613
37541,Wareena St/Nolan St,REGIONAL BUS,146.305202,-36.358828
37542,Jays Corner Store/Phillipson St,REGIONAL BUS,146.303900,-36.358622
37543,Henry St/Phillipson St,REGIONAL BUS,146.304305,-36.356939
37545,Oleary St/Phillipson St,REGIONAL BUS,146.304620,-36.355381
37547,West End Convenience Store/Phillipson St,REGIONAL BUS,146.305084,-36.353328
37548,Garnet Ave/Phillipson St,REGIONAL BUS,146.305547,-36.351393
37549,Sadler St/Phillipson St,REGIONAL BUS,146.306036,-36.348997
37550,St Bernard's PS/Williams Rd,REGIONAL BUS,146.304784,-36.346989
37552,Appin St/Williams Rd,REGIONAL BUS,146.300676,-36.346505
37557,St Johns Village Hostel/Williams Rd,REGIONAL BUS,146.289478,-36.345041
37559,Corvino Bvd/Williams Rd,REGIONAL BUS,146.291549,-36.345270
37560,Collyn - Dale Dr/Williams Rd,REGIONAL BUS,146.294621,-36.345640
37563,Uniting Church/Esmond St,REGIONAL BUS,146.299296,-36.348760
37564,Cavanagh St/Esmond St,REGIONAL BUS,146.297125,-36.348522
37566,Langlands St/Cavanagh St,REGIONAL BUS,146.296328,-36.350392
37568,Appin St/Langlands St,REGIONAL BUS,146.298619,-36.350982
37569,Athletics Complex/Appin St,REGIONAL BUS,146.299301,-36.351942
37570,Appin Park Kindergarten/Appin St,REGIONAL BUS,146.299055,-36.353329
37571,St Michaels Church/Appin St,REGIONAL BUS,146.298808,-36.354752
37572,Kanana Cres/Appin St,REGIONAL BUS,146.298561,-36.356130
37573,Rangeview Ave/Appin St,REGIONAL BUS,146.298233,-36.358003
37575,Bruck Textiles/Sisely Ave,REGIONAL BUS,146.301020,-36.359182
37576,Phillipson St/Sisely Ave,REGIONAL BUS,146.303468,-36.359593
37577,Floyd Ave/Sisely Ave,REGIONAL BUS,146.305694,-36.359931
37578,Olympic Pool/Swan St,REGIONAL BUS,146.308721,-36.359281
37579,Coronation Kindergarten/Swan St,REGIONAL BUS,146.309105,-36.357408
37580,Physio Care Wangaratta/Green St,REGIONAL BUS,146.313864,-36.356174
37581,Northeast Health/Green St,REGIONAL BUS,146.314345,-36.354626
37583,Wangaratta Coach Stop/Rowan St ,REGIONAL BUS,146.324755,-36.353342
37586,Wangaratta High School/Phillipson St,REGIONAL BUS,146.307178,-36.344695
37587,Galen Catholic College/Phillipson St,REGIONAL BUS,146.308071,-36.340787
37588,Buchan Ave/Greta Rd,REGIONAL BUS,146.313859,-36.368155
37589,Vincent Rd/Greta Rd,REGIONAL BUS,146.314559,-36.365824
37590,Philips St/Murdoch Rd,REGIONAL BUS,146.324054,-36.364832
37591,Childcare Centre/Murdoch Rd,REGIONAL BUS,146.323798,-36.366012
37592,Smith Cres/Vincent Rd,REGIONAL BUS,146.319318,-36.365905
37593,Harrison St/Burke St,REGIONAL BUS,146.317237,-36.368111
37594,Uniting Church/Burke St,REGIONAL BUS,146.317278,-36.371077
37595,Yarrunga PS/Burke St,REGIONAL BUS,146.316793,-36.373022
37596,Burke St/Lamont St,REGIONAL BUS,146.315236,-36.375140
37597,Cribbes Rd/Lamont St,REGIONAL BUS,146.315349,-36.377530
37598,Hoad St/Mitchell Ave,REGIONAL BUS,146.317675,-36.377958
37599,Hoad St/Hallet Cres,REGIONAL BUS,146.318851,-36.377307
37600,Shadforth St/Hallet Cres,REGIONAL BUS,146.319607,-36.375030
37602,Hunt St/Brash Ave,REGIONAL BUS,146.321586,-36.374293
37605,Cribbes Rd/Murdoch Rd,REGIONAL BUS,146.326253,-36.378656
37606,Bindall Ave/Cribbes Rd,REGIONAL BUS,146.323115,-36.379233
37607,Mather St/Cribbes St,REGIONAL BUS,146.320331,-36.378902
37609,Cribbes Rd/Salisbury St,REGIONAL BUS,146.312318,-36.377305
37611,Higgins St/Burke St,REGIONAL BUS,146.311143,-36.375297
37612,Irving St/Higgins St,REGIONAL BUS,146.311581,-36.373623
37613,Flanagan St/Higgins St,REGIONAL BUS,146.312877,-36.372062
37615,Greta Rd/White St,REGIONAL BUS,146.313009,-36.370972
37616,Vincent Rd/Perry St,REGIONAL BUS,146.316995,-36.365144
37618,Coles Supermarket/Perry St,REGIONAL BUS,146.318086,-36.360228
37619,Coles Supermarket/Perry St,REGIONAL BUS,146.318353,-36.360292
37621,Ovens St/Rowan St,REGIONAL BUS,146.324598,-36.353503
37622,Murphy St/Reid St,REGIONAL BUS,146.326280,-36.354829
37624,Warby Range Rd/Wangaratta - Yarrawonga Rd,REGIONAL BUS,146.265677,-36.294944
37627,Church St/Wangaratta - Yarrawonga Rd,REGIONAL BUS,146.231858,-36.191109
37628,Plentyfish Ct/Murray Valley Hwy,REGIONAL BUS,146.161595,-36.032741
37629,Melbourne St/Inglis St,REGIONAL BUS,146.005095,-35.989226
37630,Town Hall/Orr St ,REGIONAL BUS,146.004862,-36.013070
37631,Boorhaman - Springhurst Rd/Federation Way,REGIONAL BUS,146.385701,-36.185074
37639,Ned Kelly Statue/Kate St,REGIONAL BUS,146.221263,-36.463895
37640,ANZ Bank/Nunn St,REGIONAL BUS,145.983349,-36.551956
37642,Bridge St/Carrier St,REGIONAL BUS,145.985534,-36.550604
37812,Araluen Primary School/Patten St,REGIONAL BUS,147.089381,-38.107101
37813,Northwood Park Village/38 Stead St,REGIONAL BUS,147.088818,-38.103866
37814,Bergen Cres/Stead St,REGIONAL BUS,147.084907,-38.104518
37815,Ruff St/Guthridge Pde,REGIONAL BUS,147.083181,-38.101329
37817,Dawson St/Gibsons Rd,REGIONAL BUS,147.084542,-38.095154
37821,Dawson St/Buckley St,REGIONAL BUS,147.078567,-38.095374
37823,Cedar St/Raglan St,REGIONAL BUS,147.075503,-38.099468
37825,Mathieson St/McCole St,REGIONAL BUS,147.073685,-38.094837
37827,Sale Catholic College/Raglan St,REGIONAL BUS,147.066024,-38.098275
37828,Macarthur St/Raymond St,REGIONAL BUS,147.065551,-38.104575
37836,Gippsland Grammar/York St,REGIONAL BUS,147.068405,-38.095002
37841,Sale Hospital/Guthridge Pde,REGIONAL BUS,147.081616,-38.109207
37844,Marley St/Macarthur St,REGIONAL BUS,147.070353,-38.104978
37845,Charvel Rd/Longford-Loch Sport Rd ,REGIONAL BUS,147.099875,-38.165459
37849,Golden Beach Community Hall/Longford-Golden Beach Rd,REGIONAL BUS,147.399516,-38.210506
37850,National Park Ent/National Park Rd,REGIONAL BUS,147.614091,-38.027030
37851,Camerons Rd/National Park Rd,REGIONAL BUS,147.590414,-38.042536
37852,Brennans Rd/South Gippsland Hwy,REGIONAL BUS,147.083700,-38.156810
37853,Niel St/McFarlane St,REGIONAL BUS,147.083491,-37.962341
37854,Dawson St/McFarlane St,REGIONAL BUS,147.083174,-37.963973
37855,Stratford Post Office/Hobson St,REGIONAL BUS,147.080842,-37.966291
37856,Service St/Princes Hwy,REGIONAL BUS,147.629614,-37.826087
37857,Bailey,REGIONAL BUS,147.632279,-37.825514
37858,Bailey,REGIONAL BUS,147.631705,-37.826121
37859,RSPCA/Princes Hwy,REGIONAL BUS,147.614533,-37.829871
37860,Bairnsdale Hospital/Princes Hwy,REGIONAL BUS,147.608720,-37.831875
37861,Medical Centre/Morrison St,REGIONAL BUS,147.613821,-37.828982
37862,Hodgson St/Anderson St,REGIONAL BUS,147.615005,-37.827877
37863,Wallace St/Dawson St,REGIONAL BUS,147.615501,-37.826107
37864,Pearson St/McCulloch St,REGIONAL BUS,147.623349,-37.824291
37865,Princes Hwy/McCulloch St,REGIONAL BUS,147.624269,-37.826918
37866,Bairnsdale Primary School/McCulloch St,REGIONAL BUS,147.624054,-37.827009
37867,Mitchell St/McCulloch St,REGIONAL BUS,147.622669,-37.823068
37868,Dawson St/Turnbull St,REGIONAL BUS,147.615296,-37.823287
37869,Day St/Ross St,REGIONAL BUS,147.611364,-37.820460
37870,Bairnsdale Regional Health Service/McKean,REGIONAL BUS,147.608330,-37.820358
37871,Taylor St/Moroney St,REGIONAL BUS,147.603320,-37.821844
37872,Combay St/Moroney St,REGIONAL BUS,147.598167,-37.821177
37873,Moroney St/Riley St,REGIONAL BUS,147.592164,-37.820693
37874,Ballantine St/Wallace St,REGIONAL BUS,147.594489,-37.822917
37875,Reid St/Calvert St,REGIONAL BUS,147.599149,-37.830167
37876,Arco Ct/Calvert St,REGIONAL BUS,147.599468,-37.835843
37877,Bairnsdale Regional Health Service/Mckean,REGIONAL BUS,147.608091,-37.820287
37878,The Boulevarde/Bullumwaal Rd,REGIONAL BUS,147.616741,-37.804362
37879,Lindsay Ct/Bullumwaal Rd,REGIONAL BUS,147.614709,-37.801785
37880,Nicole Ct/Woodward St,REGIONAL BUS,147.611893,-37.800511
37881,Dooley St/Woodward St,REGIONAL BUS,147.613744,-37.803233
37882,Dwyer St/Bullumwaal Rd,REGIONAL BUS,147.616271,-37.805202
37883,Bairnsdale West Primary School/McKean St,REGIONAL BUS,147.607632,-37.823895
37884,Charles St/Buchanan St,REGIONAL BUS,147.649763,-37.815991
37885,Princes Hwy/Charles St,REGIONAL BUS,147.650898,-37.818454
37886,Lucknow St/Cameron St,REGIONAL BUS,147.651738,-37.824786
37887,East Bairnsdale Community Hub/Hoddinott St,REGIONAL BUS,147.653983,-37.828108
37888,Hoddinott St/Lucknow St,REGIONAL BUS,147.654175,-37.826692
37893,King St/Paynesville Rd,REGIONAL BUS,147.719071,-37.914704
37897,Retreat Motel/Princes Hwy,REGIONAL BUS,147.739055,-37.816294
37898,Retreat Hotel/Princes Hwy,REGIONAL BUS,147.738875,-37.816547
37899,General Store/Princes Hwy,REGIONAL BUS,147.831090,-37.820079
37900,Town Hall/Princes Hwy,REGIONAL BUS,147.830159,-37.820148
37901,General Store/Princes Hwy,REGIONAL BUS,147.856892,-37.821985
37902,General Store/Princes Hwy,REGIONAL BUS,147.856723,-37.822175
37903,Lakes Caravilla/Princes Hwy,REGIONAL BUS,147.957325,-37.868880
37904,Lakes Caravilla/Princes Hwy,REGIONAL BUS,147.957851,-37.870012
37905,George Bass Motor Inn/Princes Hwy,REGIONAL BUS,147.960910,-37.877900
37910,Middle St/Princes Hwy,REGIONAL BUS,148.007714,-37.874778
37915,Bairnsdale Railway Station/MacLeod St,REGIONAL BUS,147.627395,-37.828406
37920,Station Rd/Great Alpine Rd,REGIONAL BUS,147.826293,-37.708684
